stop_id,stop_name,stop_lat,stop_lon,location_type,parent_station
"de:08311:30054:0:1","Freiburg, Schutternstraße","48.0239008179695","7.72459516291335","","Parent30054"
"de:08311:30054:0:2","Freiburg, Schutternstraße","48.023774647354","7.72446041562072","","Parent30054"
"de:08311:30055:0:1","Freiburg, Waltershofen Ochsen","48.0234141581793","7.71922323751357","","Parent30055"
"de:08311:30055:0:2","Freiburg, Waltershofen Ochsen","48.0234682317162","7.71930408588915","","Parent30055"
"de:08311:30055:0:3","Freiburg, Waltershofen Ochsen","48.0234141581793","7.71922323751357","","Parent30055"
"de:08311:30055:0:4","Freiburg, Waltershofen Ochsen","48.0234682317162","7.71930408588915","","Parent30055"
"de:08311:30056:0:1","Freiburg, Am Weiher","48.0220863346414","7.72004070442224","","Parent30056"
"de:08311:30056:0:2","Freiburg, Am Weiher","48.0218520092901","7.72077732295531","","Parent30056"
"de:08311:30060:0:1","Freiburg, Kleingärten","47.9982037064778","7.74103433261503","","Parent30060"
"de:08311:30060:0:2","Freiburg, Kleingärten","47.9982457842433","7.7404773771388","","Parent30060"
"de:08311:30061:0:1","Freiburg, Opfingen Ziegelei","47.9991654754011","7.72640975978753","","Parent30061"
"de:08311:30061:0:2","Freiburg, Opfingen Ziegelei","47.9990272222218","7.72776621586674","","Parent30061"
"de:08311:30062:0:1","Freiburg, Gewerbestraße","47.9991414313966","7.71722897758255","","Parent30062"
"de:08311:30062:0:2","Freiburg, Gewerbestraße","47.9989731230508","7.7186572988845","","Parent30062"
"de:08311:30063:0:1","Freiburg, Im Hausgarten","47.9973801775887","7.71272841800848","","Parent30063"
"de:08311:30063:0:2","Freiburg, Im Hausgarten","47.9973320879043","7.71280926638407","","Parent30063"
"de:08311:30063:0:3","Freiburg, Im Hausgarten","47.9971517511886","7.71314164303924","","Parent30063"
"de:08311:30063:0:4","Freiburg, Im Hausgarten","47.9971096725309","7.71316859249776","","Parent30063"
"de:08311:30064:0:1","Freiburg, Opfingen Rathaus","48.0002534548822","7.71545031331975","","Parent30064"
"de:08311:30064:0:2","Freiburg, Opfingen Rathaus","48.0002294113847","7.71551319538964","","Parent30064"
"de:08311:30065:0:1","Freiburg, Unterdorf","48.0044669047624","7.72002273811655","","Parent30065"
"de:08311:30065:0:2","Freiburg, Unterdorf","48.0044188216837","7.72011256964497","","Parent30065"
"de:08311:30066:0:1","Freiburg, St. Nikolaus","48.0114264575899","7.72374176339332","","Parent30066"
"de:08311:30066:0:2","Freiburg, St. Nikolaus","48.0128507062586","7.72345430250236","","Parent30066"
"de:08311:30066:0:3","Freiburg, St. Nikolaus","48.0130369974791","7.72411007265986","","Parent30066"
"de:08311:30067:0:1","Freiburg, Wippertskirch","48.012111544138","7.71011432053133","","Parent30067"
"de:08311:30067:0:2","Freiburg, Wippertskirch","48.0120334206932","7.71009635422565","","Parent30067"
"de:08311:30069:0:1","Freiburg, Max-Planck-Institut","48.0255530237186","7.84984726299558","","Parent30069"
"de:08311:30069:0:2","Freiburg, Max-Planck-Institut","48.0250603715457","7.84888606564143","","Parent30069"
"de:08311:30077:0:1","Freiburg, Hofmattstraße","48.0000130194029","7.71771406783604","","Parent30077"
"de:08311:30077:0:2","Freiburg, Hofmattstraße","47.9999228558092","7.71778593305878","","Parent30077"
"de:08311:30077:0:5","Freiburg, Hofmattstraße","47.9996042765162","7.71967239515569","","Parent30077"
"de:08311:30077:0:6","Freiburg, Hofmattstraße","47.9996764078492","7.71941188372326","","Parent30077"
"de:08311:30077:0:7","Freiburg, Hofmattstraße","48.0000911610566","7.71906154076241","","Parent30077"
"de:08311:30078:0:1","Freiburg, Freiburger Landstraße","47.9822597750803","7.7157377742107","","Parent30078"
"de:08311:30078:0:2","Freiburg, Freiburger Landstraße","47.9821635674833","7.71589947096187","","Parent30078"
"de:08311:30080:0:1","Freiburg, Im Maierbrühl","47.982686694129","7.71894475977546","","Parent30080"
"de:08311:30080:0:2","Freiburg, Im Maierbrühl","47.9824040861397","7.71890882716409","","Parent30080"
"de:08311:30081:0:1","Freiburg, Etzmattenstraße","47.9879898166859","7.71580963943344","","Parent30081"
"de:08311:30081:0:2","Freiburg, Etzmattenstraße","47.9878695705111","7.71536946494416","","Parent30081"
"de:08311:30081:0:3","Freiburg, Etzmattenstraße","47.9882603695548","7.71548624593111","","Parent30081"
"de:08311:30082:0:1","Freiburg, Vogteistraße","47.9828009394728","7.71451606542413","","Parent30082"
"de:08311:30082:0:2","Freiburg, Vogteistraße","47.9831737383095","7.71460589695256","","Parent30082"
"de:08311:30083:0:1","Freiburg, Siedlerhöfe","47.9789104425793","7.70755412197123","","Parent30083"
"de:08311:30083:0:2","Freiburg, Siedlerhöfe","47.9789765894896","7.70770683556956","","Parent30083"
"de:08311:30084:0:1","Munzingen, Häusleacker","47.9728185501969","7.70105930246615","","Parent30084"
"de:08311:30084:0:2","Munzingen, Häusleacker","47.9728365924003","7.70118506660594","","Parent30084"
"de:08311:30085:0:1","Munzingen, Apotheke","47.9690836783762","7.69934352027324","","Parent30085"
"de:08311:30085:0:2","Munzingen, Apotheke","47.9690656348616","7.70020590294611","","Parent30085"
"de:08311:30086:0:1","Munzingen, Windhäuslegasse","47.9675740158508","7.69570534337205","","Parent30086"
"de:08311:30086:0:2","Munzingen, Windhäuslegasse","47.9677724998975","7.69554364662089","","Parent30086"
"de:08311:30086:0:3","Munzingen, Windhäuslegasse","47.9675740158508","7.69570534337205","","Parent30086"
"de:08311:30089:0:1","Freiburg, Im Hubhof","47.9901662240235","7.71708524713707","","Parent30089"
"de:08311:30089:0:2","Freiburg, Im Hubhof","47.9905870656814","7.71759728684909","","Parent30089"
"de:08311:30100:0:1","Freiburg, Bertoldsbrunnen","47.9946630401423","7.85006285866379","","Parent30100"
"de:08311:30100:0:2","Freiburg, Bertoldsbrunnen","47.9945247748978","7.84960471786883","","Parent30100"
"de:08311:30100:0:3","Freiburg, Bertoldsbrunnen","47.994392520839","7.84941607165914","","Parent30100"
"de:08311:30100:0:5","Freiburg, Bertoldsbrunnen","47.9952341317918","7.85026947117917","","Parent30100"
"de:08311:30100:0:6","Freiburg, Bertoldsbrunnen","47.9946690516663","7.85012574073369","","Parent30100"
"de:08311:30100:0:7","Freiburg, Bertoldsbrunnen","47.9951860401072","7.8501706564979","","Parent30100"
"de:08311:30101:1:4","Freiburg, Europaplatz","47.9980474173343","7.85238949524999","","Parent30101"
"de:08311:30101:1:5","Freiburg, Europaplatz","47.9981075285994","7.85194033760786","","Parent30101"
"de:08311:30101:2:1","Freiburg, Europaplatz","47.9973922000028","7.85246136047273","","Parent30101"
"de:08311:30101:2:12","Freiburg, Europaplatz","47.9979572503054","7.85216491642893","","Parent30101"
"de:08311:30101:2:13","Freiburg, Europaplatz","47.9980053394071","7.85202118598345","","Parent30101"
"de:08311:30101:2:2","Freiburg, Europaplatz","47.9974042224141","7.85253322569547","","Parent30101"
"de:08311:30102:0:1","Freiburg, Tennenbacher Straße","48.0029041817625","7.8545724013907","","Parent30102"
"de:08311:30102:0:2","Freiburg, Tennenbacher Straße","48.0029702979254","7.85462630030776","","Parent30102"
"de:08311:30103:0:1","Freiburg, Holzmarkt","47.9920419489719","7.84859860475047","","Parent30103"
"de:08311:30103:0:2","Freiburg, Holzmarkt","47.9920479608012","7.84855368898626","","Parent30103"
"de:08311:30104:0:1","Freiburg, Johanneskirche","47.9895169187337","7.84805063242709","","Parent30104"
"de:08311:30104:0:2","Freiburg, Johanneskirche","47.9891802387006","7.84792486828729","","Parent30104"
"de:08311:30105:0:1","Freiburg, Fahnenbergplatz","47.9991173873808","7.84611925456596","","Parent30105"
"de:08311:30105:0:5","Freiburg, Fahnenbergplatz","47.998095506352","7.84820334602541","","Parent30105"
"de:08311:30105:0:6","Freiburg, Fahnenbergplatz","47.9980594395929","7.84813148080267","","Parent30105"
"de:08311:30106:1:1","Freiburg, Stadttheater","47.9956008294134","7.84508619198908","","Parent30106"
"de:08311:30106:1:2","Freiburg, Stadttheater","47.9955046466828","7.84539161918572","","Parent30106"
"de:08311:30106:1:6","Freiburg, Stadttheater","47.9956910005604","7.84607433880175","","Parent30106"
"de:08311:30106:1:7","Freiburg, Stadttheater","47.9956609435289","7.84600247357901","","Parent30106"
"de:08311:30108:1:3","Freiburg, Eschholzstraße","47.9984381393054","7.83609405599379","","Parent30108"
"de:08311:30108:2:1","Freiburg, Eschholzstraße","47.9980834841018","7.83644439895465","","Parent30108"
"de:08311:30108:2:2","Freiburg, Eschholzstraße","47.9979512391645","7.83671389353992","","Parent30108"
"de:08311:30108:2:4","Freiburg, Eschholzstraße","47.998041406204","7.83595032554831","","Parent30108"
"de:08311:30109:0:1","Freiburg, Kreuzstraße","48.0016840228154","7.84181632435443","","Parent30109"
"de:08311:30109:0:2","Freiburg, Kreuzstraße","48.0015517871075","7.84193310534138","","Parent30109"
"de:08311:30112:0:1","Freiburg, Faulerstraße","47.9931000201478","7.8390584964318","","Parent30112"
"de:08311:30112:0:2","Freiburg, Faulerstraße","47.9925649755033","7.83842967573283","","Parent30112"
"de:08311:30114:0:1","Freiburg, Erbprinzenstraße","47.9925108695562","7.84529280450445","","Parent30114"
"de:08311:30114:0:2","Freiburg, Erbprinzenstraße","47.9926070578674","7.84533772026867","","Parent30114"
"de:08311:30115:0:1","Freiburg, Stadtgarten","47.9980053394071","7.8563510656535","","Parent30115"
"de:08311:30115:0:2","Freiburg, Stadtgarten","47.9978550608154","7.85640496457056","","Parent30115"
"de:08311:30116:0:1","Freiburg, Hochmeisterstraße","48.0005239434571","7.85864176962833","","Parent30116"
"de:08311:30116:0:2","Freiburg, Hochmeisterstraße","48.000493889241","7.85870465169823","","Parent30116"
"de:08311:30117:0:1","Freiburg, Starkenstraße","48.0025495572603","7.8599892425547","","Parent30117"
"de:08311:30117:0:2","Freiburg, Starkenstraße","48.0026397162632","7.86034856866839","","Parent30117"
"de:08311:30118:0:1","Freiburg, Oberlinden","47.9938995709062","7.85337764206266","","Parent30118"
"de:08311:30118:0:2","Freiburg, Oberlinden","47.9937613036159","7.85353933881382","","Parent30118"
"de:08311:30119:0:1","Freiburg, Schwabentorbrücke","47.9905389696656","7.85498562642145","","Parent30119"
"de:08311:30119:0:2","Freiburg, Schwabentorbrücke","47.9907914732483","7.85416815951279","","Parent30119"
"de:08311:30119:0:7","Freiburg, Schwabentorbrücke","47.9909898680537","7.85459935084923","","Parent30119"
"de:08311:30120:0:1","Freiburg, Brauerei Ganter","47.9893966761168","7.858318376126","","Parent30120"
"de:08311:30120:0:2","Freiburg, Brauerei Ganter","47.9893185182657","7.85849803918285","","Parent30120"
"de:08311:30123:0:3","Freiburg, Mattenstraße","47.9894207246626","7.84309193205806","","Parent30123"
"de:08311:30123:0:4","Freiburg, Mattenstraße","47.989715318439","7.84351414024165","","Parent30123"
"de:08311:30124:0:1","Freiburg, Schwabentorplatz","47.9924267046369","7.85408731113721","","Parent30124"
"de:08311:30124:0:3","Freiburg, Schwabentorplatz","47.9926611637136","7.85410527744289","","Parent30124"
"de:08311:30126:0:1","Freiburg, Am Planetarium","48.0002534548822","7.84354108970018","","Parent30126"
"de:08311:30129:0:1","Freiburg, Wihlerweg","47.9825063062294","7.80442844222417","","Parent30129"
"de:08311:30131:0:1","Freiburg, Peter-Thumb-Straße","47.9785797067563","7.83089281049801","","Parent30131"
"de:08311:30131:0:2","Freiburg, Peter-Thumb-Straße","47.978934496011","7.83121620400034","","Parent30131"
"de:08311:30132:0:1","Freiburg, Nelly-Sachs-Straße","47.9967970871422","7.78969607156256","","Parent30130"
"de:08311:30200:1:1","Freiburg, Hornusstraße","48.0155188130781","7.85473409814187","","Parent30200"
"de:08311:30200:1:2","Freiburg, Hornusstraße","48.0154707403028","7.85471613183618","","Parent30200"
"de:08311:30200:1:6","Freiburg, Hornusstraße","48.0154166583769","7.85454545193217","","Parent30200"
"de:08311:30200:1:7","Freiburg, Hornusstraße","48.0154947766961","7.85436578887532","","Parent30200"
"de:08311:30200:1:8","Freiburg, Hornusstraße","48.01554885854","7.85434782256964","","Parent30200"
"de:08311:30200:2:3","Freiburg, Hornusstraße","48.0158132578495","7.85534495253515","","Parent30200"
"de:08311:30200:2:4","Freiburg, Hornusstraße","48.0157651853486","7.85536291884084","","Parent30200"
"de:08311:30201:0:1","Freiburg, Tullastraße","48.0194906713025","7.85693497058826","","Parent30201"
"de:08311:30201:0:2","Freiburg, Tullastraße","48.0194906713025","7.85697090319963","","Parent30201"
"de:08311:30201:0:3","Freiburg, Tullastraße","48.0194005417555","7.85708768418659","","Parent30201"
"de:08311:30201:0:4","Freiburg, Tullastraße","48.0195447489551","7.85680920644847","","Parent30201"
"de:08311:30202:0:1","Freiburg, Reutebachgasse","48.0225549821486","7.8583812581959","","Parent30202"
"de:08311:30202:0:3","Freiburg, Reutebachgasse","48.0225609904223","7.85834532558453","","Parent30202"
"de:08311:30202:0:4","Freiburg, Reutebachgasse","48.0226390979168","7.85852498864138","","Parent30202"
"de:08311:30202:0:5","Freiburg, Reutebachgasse","48.0225549821486","7.85821956144473","","Parent30202"
"de:08311:30203:1:1","Freiburg, Okenstraße","48.0105791011114","7.85451850247365","","Parent30203"
"de:08311:30203:1:2","Freiburg, Okenstraße","48.0106151591175","7.85455443508502","","Parent30203"
"de:08311:30203:2:3","Freiburg, Okenstraße","48.0097918283599","7.86004314147175","","Parent30203"
"de:08311:30204:0:1","Freiburg, Hauptstraße","48.0064923637383","7.8552281715482","","Parent30204"
"de:08311:30204:0:2","Freiburg, Hauptstraße","48.00702726396","7.85524613785388","","Parent30204"
"de:08311:30205:0:1","Freiburg, Hauptfriedhof","48.0075861987142","7.84588569259206","","Parent30205"
"de:08311:30205:0:2","Freiburg, Hauptfriedhof","48.0075801886953","7.84581382736932","","Parent30205"
"de:08311:30206:1:1","Freiburg, Rennweg","48.0087280895985","7.84765537370202","","Parent30206"
"de:08311:30206:1:2","Freiburg, Rennweg","48.00877616866","7.84771825577191","","Parent30206"
"de:08311:30206:2:3","Freiburg, Rennweg","48.0086379412373","7.84908369500397","","Parent30206"
"de:08311:30206:2:4","Freiburg, Rennweg","48.0087821785395","7.84899386347554","","Parent30206"
"de:08311:30207:0:1","Freiburg, Eichstetter Straße","48.0102065002385","7.8502335385678","","Parent30207"
"de:08311:30207:0:2","Freiburg, Eichstetter Straße","48.0101944808107","7.85016167334506","","Parent30207"
"de:08311:30208:0:1","Freiburg, Komturplatz","48.0127725839336","7.85430290680543","","Parent30208"
"de:08311:30208:0:2","Freiburg, Komturplatz","48.0126704237915","7.85393459753889","","Parent30208"
"de:08311:30209:0:3","Freiburg, Engesserstraße","48.0217138169169","7.84989217875979","","Parent30209"
"de:08311:30209:0:4","Freiburg, Engesserstraße","48.0217859173317","7.8498742124541","","Parent30209"
"de:08311:30210:0:1","Freiburg, Industriepark","48.0199473252525","7.84069343024912","","Parent30210"
"de:08311:30210:0:2","Freiburg, Industriepark","48.0198211449602","7.8404778345809","","Parent30210"
"de:08311:30211:0:1","Freiburg, IKEA","48.0284487620363","7.83480048198448","","Parent30211"
"de:08311:30211:0:2","Freiburg, IKEA","48.02828655693","7.83462081892763","","Parent30211"
"de:08311:30212:0:1","Freiburg, Haslacher Straße","47.9953603722508","7.82508071060895","","Parent30212"
"de:08311:30213:0:1","Freiburg, Hans-Bunte-Str. Mitte","48.0291876899495","7.85521020524251","","Parent30213"
"de:08311:30213:0:2","Freiburg, Hans-Bunte-Str. Mitte","48.0289473893516","7.85468918237765","","Parent30213"
"de:08311:30214:0:1","Freiburg, Hans-Bunte-Str. Nord","48.0309718868439","7.85889329790792","","Parent30214"
"de:08311:30214:0:2","Freiburg, Hans-Bunte-Str. Nord","48.0310259524522","7.8589112642136","","Parent30214"
"de:08311:30215:0:1","Freiburg, Stübeweg","48.0276197083516","7.85272187190516","","Parent30215"
"de:08311:30215:0:2","Freiburg, Stübeweg","48.0275115699312","7.85250627623694","","Parent30215"
"de:08311:30215:0:3","Freiburg, Stübeweg","48.0278660227954","7.85179660716239","","Parent30215"
"de:08311:30215:0:4","Freiburg, Stübeweg","48.0276918005058","7.85167084302259","","Parent30215"
"de:08311:30217:0:1","Freiburg, Bernlappstraße","48.0265022670668","7.86421132439065","","Parent30217"
"de:08311:30217:0:2","Freiburg, Bernlappstraße","48.0250243236409","7.86351962162178","","Parent30217"
"de:08311:30218:0:1","Freiburg, Wildtalstraße","48.0299266072682","7.86631338215578","","Parent30218"
"de:08311:30218:0:2","Freiburg, Wildtalstraße","48.02919970495","7.8659360897364","","Parent30218"
"de:08311:30219:0:1","Freiburg, badenova","48.0275175776272","7.84602043988469","","Parent30219"
"de:08311:30219:0:2","Freiburg, badenova","48.0275295930171","7.84615518717733","","Parent30219"
"de:08311:30220:0:1","Freiburg, Schlachthof","48.0303110803817","7.84292125215405","","Parent30220"
"de:08311:30220:0:2","Freiburg, Schlachthof","48.0307856604257","7.84264277441593","","Parent30220"
"de:08311:30220:0:3","Freiburg, Schlachthof","48.0315365692883","7.84032512098258","","Parent30220"
"de:08311:30220:0:4","Freiburg, Schlachthof","48.0318489441525","7.84070241340197","","Parent30220"
"de:08311:30221:0:1","Freiburg, Wöhlerstraße","48.0329422412655","7.84930827382503","","Parent30221"
"de:08311:30221:0:2","Freiburg, Wöhlerstraße","48.032966269513","7.84935318958924","","Parent30221"
"de:08311:30223:0:1","Freiburg, Auerstraße","48.0303110803817","7.85093422448951","","Parent30223"
"de:08311:30223:0:2","Freiburg, Auerstraße","48.0304913011663","7.85087134241961","","Parent30223"
"de:08311:30224:0:1","Freiburg, Albertstraße","48.0019965785957","7.84607433880175","","Parent30224"
"de:08311:30224:0:2","Freiburg, Albertstraße","48.0013053469291","7.84526585504593","","Parent30224"
"de:08311:30225:0:1","Freiburg, Immentalstraße","48.0047253505422","7.86289080092281","","Parent30225"
"de:08311:30225:0:2","Freiburg, Immentalstraße","48.0047253505422","7.86303453136828","","Parent30225"
"de:08311:30226:0:1","Freiburg, Herdern Kirche","48.0065464550241","7.86326809334219","","Parent30226"
"de:08311:30226:0:2","Freiburg, Herdern Kirche","48.0065224144596","7.86332199225924","","Parent30226"
"de:08311:30227:0:1","Freiburg, Sandstraße","48.0081270975477","7.8621272329312","","Parent30227"
"de:08311:30227:0:2","Freiburg, Sandstraße","48.0095213883819","7.86286385146428","","Parent30227"
"de:08311:30228:0:1","Freiburg, Richard-Strauss-Str.","48.0111500165811","7.86285486831144","","Parent30228"
"de:08311:30228:0:2","Freiburg, Richard-Strauss-Str.","48.0112461701435","7.86309741343818","","Parent30228"
"de:08311:30230:0:1","Freiburg, Mooswaldallee","48.0325517806736","7.86032161920987","","Parent30230"
"de:08311:30230:0:2","Freiburg, Mooswaldallee","48.0329302271375","7.86013297300017","","Parent30230"
"de:08311:30233:0:1","Freiburg, Sonnenstraße","48.0056028544578","7.84980234723136","","Parent30233"
"de:08311:30233:0:2","Freiburg, Sonnenstraße","48.0059454375511","7.84998201028821","","Parent30233"
"de:08311:30234:1:1","Freiburg, Messe Freiburg","48.019280368781","7.83951663722676","","Parent30234"
"de:08311:30234:1:2","Freiburg, Messe Freiburg","48.019280368781","7.83976816550635","","Parent30234"
"de:08311:30234:1:3","Freiburg, Messe Freiburg","48.0192142735256","7.83949867092108","","Parent30234"
"de:08311:30234:2:10","Freiburg, Messe Freiburg","48.0187816479434","7.83925612579433","","Parent30234"
"de:08311:30234:2:6","Freiburg, Messe Freiburg","48.0188597611643","7.83928307525286","","Parent30234"
"de:08311:30234:2:7","Freiburg, Messe Freiburg","48.0188898046793","7.83953460353245","","Parent30234"
"de:08311:30235:0:1","Freiburg, Kaiserstuhlstr. Mitte","48.0110478532245","7.84457415227706","","Parent30235"
"de:08311:30235:0:2","Freiburg, Kaiserstuhlstr. Mitte","48.0109637185436","7.84459211858274","","Parent30235"
"de:08311:30236:0:1","Freiburg, Tulpenstraße","48.0011370456429","7.719483748946","","Parent30236"
"de:08311:30236:0:2","Freiburg, Tulpenstraße","48.0043647281666","7.72153190779408","","Parent30236"
"de:08311:30300:0:1","Freiburg, Laßbergstraße","47.984466487613","7.89366708256103","","Parent30300"
"de:08311:30300:0:2","Freiburg, Laßbergstraße","47.9842019275998","7.89381979615935","","Parent30300"
"de:08311:30300:0:4","Freiburg, Laßbergstraße","47.9844845257464","7.89374793093661","","Parent30300"
"de:08311:30300:0:5","Freiburg, Laßbergstraße","47.9844845257464","7.89374793093661","","Parent30300"
"de:08311:30300:0:6","Freiburg, Laßbergstraße","47.9844845257464","7.89374793093661","","Parent30300"
"de:08311:30301:0:1","Freiburg, Römerhof","47.9861620445946","7.88868143273347","","Parent30301"
"de:08311:30301:0:2","Freiburg, Römerhof","47.9861259694941","7.88873533165052","","Parent30301"
"de:08311:30302:0:1","Freiburg, Hasemannstraße","47.986835441843","7.88317476004105","","Parent30302"
"de:08311:30302:0:2","Freiburg, Hasemannstraße","47.9866610808984","7.88458511503731","","Parent30302"
"de:08311:30303:0:1","Freiburg, Emil-Gött-Straße","47.9870759387311","7.87828792489476","","Parent30303"
"de:08311:30303:0:2","Freiburg, Emil-Gött-Straße","47.9870699263226","7.87962641466828","","Parent30303"
"de:08311:30304:0:1","Freiburg, Musikhochschule","47.9880138658872","7.87314956146888","","Parent30304"
"de:08311:30304:0:2","Freiburg, Musikhochschule","47.9879477305565","7.87338312344278","","Parent30304"
"de:08311:30305:0:1","Freiburg, Alter Messplatz","47.9885429454815","7.86954731717906","","Parent30305"
"de:08311:30305:0:2","Freiburg, Alter Messplatz","47.9884768108288","7.86971799708306","","Parent30305"
"de:08311:30306:0:1","Freiburg, Maria-Hilf-Kirche","47.9883926393301","7.86464251572708","","Parent30306"
"de:08311:30306:0:2","Freiburg, Maria-Hilf-Kirche","47.9884106760914","7.8649209934652","","Parent30306"
"de:08311:30310:0:1","Freiburg, Päd. Hochschule","47.9811593899866","7.89467319567938","","Parent30310"
"de:08311:30310:0:2","Freiburg, Päd. Hochschule","47.9812796517943","7.89445760001116","","Parent30310"
"de:08311:30311:0:1","Freiburg, Sudetenstraße","47.9789826028409","7.89661355669335","","Parent30311"
"de:08311:30311:0:2","Freiburg, Sudetenstraße","47.9785436263565","7.89842815356752","","Parent30311"
"de:08311:30312:0:1","Freiburg, Römerstraße","47.9785376129541","7.90022478413601","","Parent30312"
"de:08311:30313:0:1","Freiburg, Höllentalstraße","47.9778099860923","7.90330600556097","","Parent30313"
"de:08311:30313:0:2","Freiburg, Höllentalstraße","47.9777137702024","7.90353058438203","","Parent30313"
"de:08311:30314:0:1","Freiburg, Am Hörchersberg","47.9773048506701","7.90726757596449","","Parent30314"
"de:08311:30314:0:2","Freiburg, Am Hörchersberg","47.9771545117925","7.90664773841836","","Parent30314"
"de:08311:30315:0:1","Freiburg, Löwen","47.9770222132181","7.9106362582804","","Parent30315"
"de:08311:30315:0:2","Freiburg, Löwen","47.9772086338388","7.91102253385263","","Parent30315"
"de:08311:30316:0:1","Freiburg, Königsberger Straße","47.9754586589343","7.91525359884142","","Parent30316"
"de:08311:30316:0:2","Freiburg, Königsberger Straße","47.9757894147506","7.91547817766248","","Parent30316"
"de:08311:30317:0:1","Freiburg, Im Schulerdobel","47.9712969683579","7.91092371917136","","Parent30317"
"de:08311:30317:0:2","Freiburg, Im Schulerdobel","47.9708579265284","7.91067219089178","","Parent30317"
"de:08311:30318:0:1","Freiburg, Peterbergstraße","47.9664552733216","7.90907318968582","","Parent30318"
"de:08311:30318:0:2","Freiburg, Peterbergstraße","47.9670988539735","7.90937861688246","","Parent30318"
"de:08311:30319:0:1","Freiburg, Kleintalstraße","47.9647771140917","7.90839047006979","","Parent30319"
"de:08311:30319:0:2","Freiburg, Kleintalstraße","47.9650898934227","7.9082018238601","","Parent30319"
"de:08311:30320:0:1","Freiburg, Am Bannwald","47.9628041546597","7.90931573481256","","Parent30320"
"de:08311:30320:0:2","Freiburg, Am Bannwald","47.9626297125475","7.90925285274267","","Parent30320"
"de:08311:30321:0:1","Freiburg, Hercherhof","47.9559162513193","7.91281916442112","","Parent30321"
"de:08311:30321:0:2","Freiburg, Hercherhof","47.9559102352818","7.91275628235122","","Parent30321"
"de:08311:30322:0:1","Freiburg, Molzhofsiedlung","47.9505376342117","7.91204661327667","","Parent30322"
"de:08311:30323:0:2","Freiburg, R.-Schneider-Straße","47.981339782593","7.90194954948176","","Parent30323"
"de:08311:30324:0:2","Freiburg, Ebneter Straße","47.982398073187","7.89853595140163","","Parent30324"
"de:08311:30326:0:1","Freiburg, Nepomukbrücke","47.987334471636","7.89807781060667","","Parent30326"
"de:08311:30326:0:2","Freiburg, Nepomukbrücke","47.9873525087671","7.89824849051067","","Parent30326"
"de:08311:30327:0:1","Freiburg, Ebnet-Rathaus","47.9868955661701","7.90379109581446","","Parent30327"
"de:08311:30327:0:2","Freiburg, Ebnet-Rathaus","47.9868715164477","7.90494992253114","","Parent30327"
"de:08311:30328:0:1","Freiburg, Pfarrheim","47.9883024554292","7.90583925466254","","Parent30328"
"de:08311:30328:0:2","Freiburg, Pfarrheim","47.9884828230735","7.90668367102973","","Parent30328"
"de:08311:30329:0:1","Freiburg, Im Gänderle","47.9893245304123","7.91091473601852","","Parent30329"
"de:08311:30329:0:2","Freiburg, Im Gänderle","47.9893185182657","7.91109439907537","","Parent30329"
"de:08311:30330:0:1","Freiburg, Langmatten","47.9895469793441","7.91495715479762","","Parent30330"
"de:08311:30331:0:2","Freiburg, Zenlinweg","47.9808948130237","7.90432110183217","","Parent30331"
"de:08311:30332:0:1","Freiburg, Unteres Grün","47.9842680677302","7.90495890568398","","Parent30332"
"de:08311:30332:0:2","Freiburg, Unteres Grün","47.9844905384561","7.90471636055723","","Parent30332"
"de:08311:30333:0:2","Freiburg, Butzenhofstraße","47.9519394977571","7.91228915840342","","Parent30333"
"de:08311:30334:0:1","Freiburg, Molzhofstraße","47.9515002913809","7.91280119811543","","Parent30334"
"de:08311:30335:0:1","Freiburg, Zartener Straße","47.9849354770314","7.90800419449757","","Parent30335"
"de:08311:30335:0:2","Freiburg, Zartener Straße","47.9850437047535","7.90800419449757","","Parent30335"
"de:08311:30337:0:1","Freiburg, Heinrich-Heine-Str.","47.9866370310667","7.89584998870174","","Parent30337"
"de:08311:30337:0:2","Freiburg, Heinrich-Heine-Str.","47.9864205820772","7.89576015717331","","Parent30337"
"de:08311:30388:0:1","Freiburg, Junghof","47.9586414442638","7.91108541592253","","Parent30338"
"de:08311:30388:0:2","Freiburg, Junghof","47.9587076171393","7.91098660124126","","Parent30338"
"de:08311:30400:0:1","Freiburg, Dorfstraße","47.9645485433828","7.8577883701083","","Parent30400"
"de:08311:30400:0:2","Freiburg, Dorfstraße","47.9650177137452","7.85739311138323","","Parent30400"
"de:08311:30400:0:4","Freiburg, Dorfstraße","47.9644823779889","7.85797701631799","","Parent30400"
"de:08311:30400:0:5","Freiburg, Dorfstraße","47.9643380168351","7.8577254880384","","Parent30400"
"de:08311:30400:0:6","Freiburg, Dorfstraße","47.9644823779889","7.85776142064977","","Parent30400"
"de:08311:30401:0:1","Freiburg, Klosterplatz","47.9657755953284","7.85597377323412","","Parent30401"
"de:08311:30401:0:2","Freiburg, Klosterplatz","47.9657755953284","7.85597377323412","","Parent30401"
"de:08311:30402:0:1","Freiburg, Wiesenweg","47.9669845738825","7.85257814145968","","Parent30402"
"de:08311:30402:0:2","Freiburg, Wiesenweg","47.9669304411196","7.85261407407105","","Parent30402"
"de:08311:30402:0:3","Freiburg, Wiesenweg","47.9666778208092","7.85314408008875","","Parent30402"
"de:08311:30403:0:1","Freiburg, Wonnhalde","47.9745505729812","7.84752960956222","","Parent30403"
"de:08311:30403:0:2","Freiburg, Wonnhalde","47.9744904342748","7.84748469379801","","Parent30403"
"de:08311:30404:0:1","Freiburg, Holbeinstraße","47.9793373893269","7.84788893567592","","Parent30404"
"de:08311:30404:0:2","Freiburg, Holbeinstraße","47.9796560937525","7.84787995252308","","Parent30404"
"de:08311:30405:0:1","Freiburg, Lorettostraße","47.9850016162219","7.84752960956222","","Parent30405"
"de:08311:30405:0:2","Freiburg, Lorettostraße","47.9849234517149","7.84746672749233","","Parent30405"
"de:08311:30408:0:1","Freiburg, Reiterstraße","47.9873404840137","7.83998376117457","","Parent30408"
"de:08311:30408:0:2","Freiburg, Reiterstraße","47.9873044097369","7.84011850846721","","Parent30408"
"de:08311:30411:0:1","Freiburg, H.-von-Stephan-Straße","47.9863905196458","7.83723491640478","","Parent30411"
"de:08311:30411:0:2","Freiburg, H.-von-Stephan-Straße","47.986324382235","7.83680372506834","","Parent30411"
"de:08311:30411:0:3","Freiburg, H.-von-Stephan-Straße","47.9866791182648","7.83610303914663","","Parent30411"
"de:08311:30411:0:4","Freiburg, H.-von-Stephan-Straße","47.9871120131677","7.83568083096304","","Parent30411"
"de:08311:30412:0:1","Freiburg, Vogelsang","47.9620281835046","7.86178587312318","","Parent30412"
"de:08311:30412:0:2","Freiburg, Vogelsang","47.9617274163564","7.86203740140277","","Parent30412"
"de:08311:30413:0:1","Freiburg, Leimeweg","47.9596641065097","7.86365436891441","","Parent30413"
"de:08311:30413:0:2","Freiburg, Leimeweg","47.9597964495563","7.86352860477462","","Parent30413"
"de:08311:30414:0:1","Freiburg, Kyburg","47.957727046761","7.86373521729","","Parent30414"
"de:08311:30414:0:2","Freiburg, Kyburg","47.9571856195589","7.86365436891441","","Parent30414"
"de:08311:30415:0:1","Freiburg, Weddigenstraße","47.9840936981126","7.83660609570581","","Parent30415"
"de:08311:30415:0:2","Freiburg, Weddigenstraße","47.9839313534564","7.83642643264896","","Parent30415"
"de:08311:30418:0:1","Freiburg, Lörracher Straße","47.9793734691719","7.81986149880749","","Parent30418"
"de:08311:30418:0:2","Freiburg, Lörracher Straße","47.9794696819688","7.82021184176835","","Parent30418"
"de:08311:30421:0:1","Freiburg, Kalkackerweg","47.9802213382719","7.79753836399401","","Parent30421"
"de:08311:30423:0:1","Freiburg, Vauban-Mitte","47.9752962871218","7.82257441096591","","Parent30423"
"de:08311:30423:0:2","Freiburg, Vauban-Mitte","47.9753804799772","7.82239474790906","","Parent30423"
"de:08311:30424:0:1","Freiburg, Innsbrucker Straße","47.9764689609612","7.81800198616911","","Parent30424"
"de:08311:30424:0:3","Freiburg, Innsbrucker Straße","47.9766433563342","7.81698688989791","","Parent30424"
"de:08311:30424:0:4","Freiburg, Innsbrucker Straße","47.9765772064345","7.81730130024739","","Parent30424"
"de:08311:30428:0:1","Freiburg, Moosackerweg","47.9842019275998","7.795885463871","","Parent30428"
"de:08311:30428:0:2","Freiburg, Moosackerweg","47.9840636343259","7.7956519018971","","Parent30428"
"de:08311:30429:0:1","Freiburg, Hirschenhofweg","47.986113944455","7.9042851692208","","Parent30429"
"de:08311:30429:0:2","Freiburg, Hirschenhofweg","47.9861319820126","7.90439296705491","","Parent30429"
"de:08311:30431:0:1","Freiburg, Berggasse","48.0260757105099","7.86023178768144","","Parent30431"
"de:08311:30431:0:2","Freiburg, Berggasse","48.0261057498196","7.8602856865985","","Parent30431"
"de:08311:30431:0:3","Freiburg, Berggasse","48.0259615609734","7.86035755182124","","Parent30431"
"de:08311:30431:0:4","Freiburg, Berggasse","48.0260817183732","7.86048331596103","","Parent30431"
"de:08311:30432:0:1","Freiburg, Glottertalstraße","48.0302930582686","7.86203740140277","","Parent30432"
"de:08311:30432:0:2","Freiburg, Glottertalstraße","48.0302870508962","7.86210028347267","","Parent30432"
"de:08311:30432:0:3","Freiburg, Glottertalstraße","48.0301669033003","7.86222604761246","","Parent30432"
"de:08311:30432:0:4","Freiburg, Glottertalstraße","48.0302510066468","7.86219011500109","","Parent30432"
"de:08311:30480:0:1","Freiburg, Lorettoschule","47.9845566782167","7.84399923049514","","Parent30480"
"de:08311:30481:0:1","Freiburg, Weiherhofschule","48.0056268954509","7.86306148082681","","Parent30481"
"de:08311:30485:0:1","Freiburg, Liebigstraße","48.0160716467737","7.84178039174306","","Parent30485"
"de:08311:30485:0:2","Freiburg, Liebigstraße","48.0161617821403","7.84166361075611","","Parent30485"
"de:08311:30500:1:1","Freiburg, Rathaus im Stühlinger","48.000313563577","7.83113535562476","","Parent30500"
"de:08311:30500:1:2","Freiburg, Rathaus im Stühlinger","48.0001031828389","7.83159349641973","","Parent30500"
"de:08311:30500:2:3","Freiburg, Rathaus im Stühlinger","48.0003255853076","7.83283317151198","","Parent30500"
"de:08311:30500:2:4","Freiburg, Rathaus im Stühlinger","48.0002955309759","7.83290503673472","","Parent30500"
"de:08311:30501:0:1","Freiburg, Runzmattenweg","48.0022850899429","7.82512562637316","","Parent30501"
"de:08311:30501:0:2","Freiburg, Runzmattenweg","48.0020386532677","7.82559275032097","","Parent30501"
"de:08311:30502:0:1","Freiburg, Am Bischofskreuz","48.0069551429054","7.81815469976743","","Parent30502"
"de:08311:30502:0:2","Freiburg, Am Bischofskreuz","48.006877011649","7.81826249760154","","Parent30502"
"de:08311:30503:0:1","Freiburg, Betzenhauser Torplatz","48.0105971301176","7.81174072863792","","Parent30503"
"de:08311:30503:0:2","Freiburg, Betzenhauser Torplatz","48.0109757377921","7.8108693628122","","Parent30503"
"de:08311:30504:0:1","Freiburg, Paduaallee","48.0137881649272","7.80779712454009","","Parent30504"
"de:08311:30504:0:2","Freiburg, Paduaallee","48.0137340812365","7.8077162761645","","Parent30504"
"de:08311:30504:0:3","Freiburg, Paduaallee","48.0141667491737","7.80767136040029","","Parent30504"
"de:08311:30504:0:4","Freiburg, Paduaallee","48.0138963321384","7.80765339409461","","Parent30504"
"de:08311:30504:0:5","Freiburg, Paduaallee","48.0138482578503","7.80746474788492","","Parent30504"
"de:08311:30504:0:6","Freiburg, Paduaallee","48.0137701370366","7.80792288867988","","Parent30504"
"de:08311:30504:0:7","Freiburg, Paduaallee","48.0140645917937","7.80731203428659","","Parent30504"
"de:08311:30505:1:1","Freiburg, Bissierstraße","48.0022069516124","7.8199064145717","","Parent30505"
"de:08311:30505:1:2","Freiburg, Bissierstraße","48.0021588664271","7.81984353250181","","Parent30505"
"de:08311:30505:2:5","Freiburg, Bissierstraße","48.0020025892653","7.82066998256331","","Parent30505"
"de:08311:30506:0:1","Freiburg, Gescheidstraße","48.0144311555704","7.80441047591848","","Parent30506"
"de:08311:30506:0:2","Freiburg, Gescheidstraße","48.0143350079467","7.80443742537701","","Parent30506"
"de:08311:30507:0:1","Freiburg, Kirchbergstraße","48.0166785552008","7.80073636640592","","Parent30507"
"de:08311:30507:0:2","Freiburg, Kirchbergstraße","48.0165944297067","7.80081721478151","","Parent30507"
"de:08311:30508:0:1","Freiburg, Ziegelhofstraße","48.0168047431846","7.79902956736586","","Parent30508"
"de:08311:30508:0:2","Freiburg, Ziegelhofstraße","48.0180125268333","7.79770006074518","","Parent30508"
"de:08311:30508:0:3","Freiburg, Ziegelhofstraße","48.0171172073391","7.79828396567994","","Parent30508"
"de:08311:30508:0:4","Freiburg, Ziegelhofstraße","48.0167326358031","7.79897566844881","","Parent30508"
"de:08311:30509:0:1","Freiburg, Lehen Ziegelei","48.0219902012928","7.79490630021118","","Parent30509"
"de:08311:30509:0:2","Freiburg, Lehen Ziegelei","48.0216777666716","7.79515782849077","","Parent30509"
"de:08311:30510:0:1","Freiburg, Ferdinand-Weiß-Str.","47.9952882348835","7.83366860472633","","Parent30510"
"de:08311:30510:0:2","Freiburg, Ferdinand-Weiß-Str.","47.9950177188579","7.83378538571328","","Parent30510"
"de:08311:30510:0:3","Freiburg, Ferdinand-Weiß-Str.","47.9949876614342","7.83277028944209","","Parent30510"
"de:08311:30510:0:4","Freiburg, Ferdinand-Weiß-Str.","47.9950718221765","7.8327523231364","","Parent30510"
"de:08311:30511:0:1","Freiburg, Vogesenstraße","47.9966888840664","7.82993161314387","","Parent30511"
"de:08311:30511:0:2","Freiburg, Vogesenstraße","47.9963943300994","7.83013822565925","","Parent30511"
"de:08311:30512:0:1","Freiburg, Draisstraße","47.9980173616755","7.83146773227993","","Parent30512"
"de:08311:30512:0:2","Freiburg, Draisstraße","47.9979332057377","7.83146773227993","","Parent30512"
"de:08311:30513:0:1","Freiburg, Mundenhof","48.0085417828118","7.78192564435384","","Parent30513"
"de:08311:30513:0:2","Freiburg, Mundenhof","48.008463653959","7.78200649272943","","Parent30513"
"de:08311:30515:0:1","Freiburg, Mundenhof Wirtgeb.","48.015879357465","7.77676033146944","","Parent30515"
"de:08311:30597:0:1","Freiburg, Sandfangweg","47.9914107029949","7.87995879132345","","Parent30597"
"de:08311:30597:0:2","Freiburg, Sandfangweg","47.9914828457831","7.88003963969903","","Parent30597"
"de:08311:30598:0:1","Freiburg, Rabenkopfstraße","47.9920118898148","7.87298786471771","","Parent30598"
"de:08311:30598:0:2","Freiburg, Rabenkopfstraße","47.9921020672337","7.87307769624614","","Parent30598"
"de:08311:30599:0:1","Freiburg, Fabrikstraße","47.9916030835393","7.86262130633753","","Parent30599"
"de:08311:30599:0:2","Freiburg, Fabrikstraße","47.9915549884704","7.86263927264322","","Parent30599"
"de:08311:30600:0:1","Freiburg, Bugginger Straße","47.9974703456262","7.80700660708995","","Parent30600"
"de:08311:30600:0:2","Freiburg, Bugginger Straße","47.9974703456262","7.80706050600701","","Parent30600"
"de:08311:30601:0:1","Freiburg, Am Lindenwäldle","47.9947171438328","7.80259587904431","","Parent30601"
"de:08311:30601:0:2","Freiburg, Am Lindenwäldle","47.9945788787333","7.80307198614496","","Parent30601"
"de:08311:30602:0:1","Freiburg, Krozinger Straße","47.9930218679053","7.80978240131827","","Parent30602"
"de:08311:30602:0:2","Freiburg, Krozinger Straße","47.9929617507151","7.80987223284669","","Parent30602"
"de:08311:30603:0:1","Freiburg, Dorfbrunnen","47.991152190509","7.8164568838802","","Parent30603"
"de:08311:30603:0:2","Freiburg, Dorfbrunnen","47.9910980830807","7.8165197659501","","Parent30603"
"de:08311:30604:0:1","Freiburg, Scherrerplatz","47.9905690296807","7.81949318954095","","Parent30604"
"de:08311:30604:0:2","Freiburg, Scherrerplatz","47.9905028976243","7.81961895368075","","Parent30604"
"de:08311:30604:0:3","Freiburg, Scherrerplatz","47.9907493894036","7.82004116186434","","Parent30604"
"de:08311:30604:0:4","Freiburg, Scherrerplatz","47.990725341477","7.82019387546266","","Parent30604"
"de:08311:30605:0:1","Freiburg, Haslach Bad","47.989498882359","7.82349069255584","","Parent30605"
"de:08311:30605:0:2","Freiburg, Haslach Bad","47.9894267367973","7.82357154093142","","Parent30605"
"de:08311:30607:0:1","Freiburg, Rohrgraben","47.9996403421953","7.81048308723998","","Parent30607"
"de:08311:30607:0:2","Freiburg, Rohrgraben","47.9992436183386","7.80976443501258","","Parent30607"
"de:08311:30609:0:1","Freiburg, Rivanerweg","47.9819651387481","7.71138992823496","","Parent30609"
"de:08311:30609:0:2","Freiburg, Rivanerweg","47.9821274895882","7.71165942282023","","Parent30609"
"de:08311:30610:0:2","Freiburg, Am Kirchacker","47.9859756563038","7.81149818351117","","Parent30610"
"de:08311:30610:0:3","Freiburg, Am Kirchacker","47.9858734430844","7.81130953730148","","Parent30610"
"de:08311:30611:0:1","Freiburg, Uffhauser Straße","47.9882663818247","7.81360922442915","","Parent30611"
"de:08311:30611:0:2","Freiburg, Uffhauser Straße","47.9880559519626","7.81411228098833","","Parent30611"
"de:08311:30612:0:1","Freiburg, Belchenstraße","47.9873104221181","7.81767859266678","","Parent30612"
"de:08311:30612:0:2","Freiburg, Belchenstraße","47.9876591390311","7.81850504272828","","Parent30612"
"de:08311:30613:0:1","Freiburg, Marienmattenweg","47.993226265828","7.83100959148497","","Parent30613"
"de:08311:30613:0:2","Freiburg, Marienmattenweg","47.9934907795851","7.83021907403483","","Parent30613"
"de:08311:30614:0:1","Freiburg, Mühle","47.9948554085618","7.82639225092395","","Parent30614"
"de:08311:30614:0:2","Freiburg, Mühle","47.9948073165242","7.82622157101994","","Parent30614"
"de:08311:30615:0:2","Freiburg, Laufener Straße","47.9978129827314","7.817894188335","","Parent30615"
"de:08311:30616:1:5","Freiburg, Pressehaus","47.9864386195277","7.82929380929206","","Parent30616"
"de:08311:30616:1:6","Freiburg, Pressehaus","47.9863845071574","7.82927584298637","","Parent30616"
"de:08311:30616:3:9","Freiburg, Pressehaus","47.9856389531691","7.82945550604322","","Parent30616"
"de:08311:30617:0:1","Freiburg, Markgrafenstraße","47.9935388728498","7.82194559026694","","Parent30617"
"de:08311:30617:0:2","Freiburg, Markgrafenstraße","47.9935569078124","7.82204440494821","","Parent30617"
"de:08311:30618:0:1","Freiburg, Struveweg","47.9873525087671","7.80157179962027","","Parent30618"
"de:08311:30618:0:2","Freiburg, Struveweg","47.9875148426632","7.80113162513099","","Parent30618"
"de:08311:30621:0:1","Freiburg, Mathias-Blank-Straße","47.9972659645151","7.82132575272081","","Parent30621"
"de:08311:30621:0:2","Freiburg, Mathias-Blank-Straße","47.9971036612913","7.82147846631913","","Parent30621"
"de:08311:30622:0:1","Freiburg, Am Mettweg","47.9829933521118","7.80745576473207","","Parent30622"
"de:08311:30622:0:2","Freiburg, Am Mettweg","47.9829632876843","7.80776119192872","","Parent30622"
"de:08311:30623:0:2","Freiburg, Schulstraße","47.9821996453532","7.79869719071069","","Parent30623"
"de:08311:30624:0:1","Freiburg, Opfinger See","47.9978550608154","7.74839153479299","","Parent30624"
"de:08311:30624:0:2","Freiburg, Opfinger See","47.9978009604153","7.74840950109868","","Parent30624"
"de:08311:30651:0:1","Freiburg, Paula-Modersohn-Platz","47.9740814892136","7.82777565646169","","Parent30651"
"de:08311:30651:0:2","Freiburg, Paula-Modersohn-Platz","47.9741235866489","7.82760497655768","","Parent30651"
"de:08311:30700:0:1","Freiburg, Obergasse","47.9776656621902","7.79504104750381","","Parent30700"
"de:08311:30700:0:2","Freiburg, Obergasse","47.9774732296932","7.79492426651686","","Parent30700"
"de:08311:30704:0:1","Freiburg, Kapellenwinkel","47.9788503089508","7.80456318951681","","Parent30704"
"de:08311:30704:0:2","Freiburg, Kapellenwinkel","47.9788924024981","7.80479675149071","","Parent30704"
"de:08311:30705:0:1","Freiburg, Schneeburgstraße","47.9788863891363","7.81024952526607","","Parent30705"
"de:08311:30705:0:2","Freiburg, Schneeburgstraße","47.9787240281032","7.81048308723998","","Parent30705"
"de:08311:30706:0:1","Freiburg, Gabelsbergerstraße","47.9783632239794","7.81605264200229","","Parent30706"
"de:08311:30706:0:2","Freiburg, Gabelsbergerstraße","47.9782128881836","7.81583704633408","","Parent30706"
"de:08311:30707:0:1","Freiburg, Schopfheimer Straße","47.9811894554648","7.82029269014393","","Parent30707"
"de:08311:30707:0:2","Freiburg, Schopfheimer Straße","47.98169455288","7.82013997654561","","Parent30707"
"de:08311:30708:0:1","Freiburg, Bauhöferstraße","47.9850136415201","7.8222330511579","","Parent30708"
"de:08311:30708:0:2","Freiburg, Bauhöferstraße","47.9848633250905","7.82243966367327","","Parent30708"
"de:08311:30709:0:1","Freiburg, Fichtestraße","47.985530726695","7.82660784659217","","Parent30709"
"de:08311:30709:0:2","Freiburg, Fichtestraße","47.9852902226069","7.82616767210289","","Parent30709"
"de:08311:30711:0:1","Freiburg, Schiff","47.982398073187","7.80217367086072","","Parent30711"
"de:08311:30711:0:2","Freiburg, Schiff","47.9824281379437","7.80406013295763","","Parent30711"
"de:08311:30712:0:1","Freiburg, Besanconallee","47.9808647473739","7.79492426651686","","Parent30712"
"de:08311:30712:0:2","Freiburg, Besanconallee","47.9810210885615","7.79488833390549","","Parent30712"
"de:08311:30712:0:4","Freiburg, Besanconallee","47.9814840962243","7.795714783967","","Parent30712"
"de:08311:30713:0:1","Freiburg, Friedhof St.Georgen","47.9805520635782","7.79074710044512","","Parent30713"
"de:08311:30713:0:2","Freiburg, Friedhof St.Georgen","47.9804017341562","7.78966013895119","","Parent30713"
"de:08311:30714:0:1","Freiburg, KEIDEL Bad","47.9841057236224","7.7663398741722","","Parent30714"
"de:08311:30714:0:2","Freiburg, KEIDEL Bad","47.9837930594576","7.76590868283576","","Parent30714"
"de:08311:30715:0:1","Freiburg, VAG-Zentrum","47.9921140908776","7.79766412813381","","Parent30715"
"de:08311:30715:0:2","Freiburg, VAG-Zentrum","47.9920960554107","7.79770006074518","","Parent30715"
"de:08311:30715:0:5","Freiburg, VAG-Zentrum","47.9917112972803","7.79763717867528","","Parent30715"
"de:08311:30716:1:1","Freiburg, Munzinger Straße","47.9883084676941","7.79646038565292","","Parent30716"
"de:08311:30716:1:8","Freiburg, Munzinger Straße","47.9883986515846","7.79608309323354","","Parent30716"
"de:08311:30716:2:12","Freiburg, Munzinger Straße","47.9880980380036","7.79614597530343","","Parent30716"
"de:08311:30716:2:2","Freiburg, Munzinger Straße","47.9882723940939","7.7960112280108","","Parent30716"
"de:08311:30716:2:3","Freiburg, Munzinger Straße","47.9881280994405","7.79597529539943","","Parent30716"
"de:08311:30716:2:4","Freiburg, Munzinger Straße","47.9879717797775","7.79609207638638","","Parent30716"
"de:08311:30716:2:6","Freiburg, Munzinger Straße","47.9878274842837","7.79589444702385","","Parent30716"
"de:08311:30716:2:7","Freiburg, Munzinger Straße","47.987665151371","7.79591241332953","","Parent30716"
"de:08311:30716:2:9","Freiburg, Munzinger Straße","47.9885188965267","7.795885463871","","Parent30716"
"de:08311:30717:0:1","Freiburg, Bötzinger Straße","47.9893485789917","7.78927386337896","","Parent30717"
"de:08311:30717:0:2","Freiburg, Bötzinger Straße","47.9892884575222","7.78930081283749","","Parent30717"
"de:08311:30720:0:1","Freiburg, Burkheimer Straße","47.985470600778","7.78460262390089","","Parent30720"
"de:08311:30720:0:2","Freiburg, Burkheimer Straße","47.9853443361244","7.78570755170051","","Parent30720"
"de:08311:30721:0:1","Freiburg, Rimsinger Weg","47.9932503125893","7.78870792474989","","Parent30721"
"de:08311:30721:0:2","Freiburg, Rimsinger Weg","47.9933464995221","7.78864504267999","","Parent30721"
"de:08311:30722:0:1","Freiburg, Riegeler Straße","47.9878876074551","7.78804317143955","","Parent30722"
"de:08311:30722:0:2","Freiburg, Riegeler Straße","47.9882904308971","7.78838453124756","","Parent30722"
"de:08311:30725:0:1","Freiburg, St. Georgen Kirche","47.9809489311491","7.79363069250755","","Parent30725"
"de:08311:30725:0:2","Freiburg, St. Georgen Kirche","47.9811112851851","7.79447510887474","","Parent30725"
"de:08311:30726:0:1","Freiburg, Cardinalweg","47.9779122152788","7.79998178156716","","Parent30726"
"de:08311:30726:0:2","Freiburg, Cardinalweg","47.9781768075275","7.80194010888681","","Parent30726"
"de:08311:30727:0:1","Freiburg, Bollerstaudenstraße","48.0006261276607","7.78797130621681","","Parent30727"
"de:08311:30727:0:2","Freiburg, Bollerstaudenstraße","48.0006141060002","7.78793537360544","","Parent30727"
"de:08311:30733:0:1","Freiburg, Geschw.-Scholl-Platz","47.9974823680193","7.79501409804529","","Parent30733"
"de:08311:30733:0:2","Freiburg, Geschw.-Scholl-Platz","47.9974523120313","7.79497816543392","","Parent30733"
"de:08311:30734:0:1","Freiburg, Maria-von-Rudloff-Platz","47.9993578270343","7.79108846025314","","Parent30734"
"de:08311:30734:0:2","Freiburg, Maria-von-Rudloff-Platz","47.9991654754011","7.79143880321399","","Parent30734"
"de:08311:30738:0:2","Freiburg, Kunzenweg","47.9799687829749","7.89536489844825","","Parent30738"
"de:08311:30800:0:1","Freiburg, Moosweiher","48.0285809287826","7.80908171539656","","Parent30800"
"de:08311:30800:0:2","Freiburg, Moosweiher","48.0285148454518","7.80907273224371","","Parent30800"
"de:08311:30800:0:3","Freiburg, Moosweiher","48.0286410044643","7.80889306918687","","Parent30800"
"de:08311:30800:0:5","Freiburg, Moosweiher","48.0287911933621","7.80903679963234","","Parent30800"
"de:08311:30801:1:1","Freiburg, Diakoniekrankenhaus","48.0240149720698","7.81204615583456","","Parent30801"
"de:08311:30801:1:2","Freiburg, Diakoniekrankenhaus","48.0238527530095","7.81205513898741","","Parent30801"
"de:08311:30801:2:3","Freiburg, Diakoniekrankenhaus","48.0241892067882","7.81441770818497","","Parent30801"
"de:08311:30801:2:4","Freiburg, Diakoniekrankenhaus","48.023894809852","7.81386075270874","","Parent30801"
"de:08311:30802:0:1","Freiburg, Moosgrund","48.0183490187308","7.8118215770135","","Parent30802"
"de:08311:30802:0:2","Freiburg, Moosgrund","48.0182288433052","7.81156106558107","","Parent30802"
"de:08311:30803:0:1","Freiburg, Hofackerstraße","48.0181927906229","7.8184241943527","","Parent30803"
"de:08311:30803:0:2","Freiburg, Hofackerstraße","48.018198799405","7.81822656499017","","Parent30803"
"de:08311:30804:0:1","Freiburg, Almendweg","48.0158312850257","7.82264627618865","","Parent30804"
"de:08311:30804:0:2","Freiburg, Almendweg","48.0154046401634","7.82316729905351","","Parent30804"
"de:08311:30805:0:1","Freiburg, Falkenbergerstraße","48.0139203692656","7.82573648076645","","Parent30805"
"de:08311:30805:0:2","Freiburg, Falkenbergerstraße","48.0134215965795","7.82623953732563","","Parent30805"
"de:08311:30805:0:3","Freiburg, Falkenbergerstraße","48.0133134283725","7.82536817149991","","Parent30805"
"de:08311:30806:0:1","Freiburg, Robert-Grumbach-Platz","48.011498572392","7.82956330387733","","Parent30806"
"de:08311:30806:0:2","Freiburg, Robert-Grumbach-Platz","48.0110538628393","7.83021009088199","","Parent30806"
"de:08311:30807:0:1","Freiburg, Elsässer Straße","48.0096235547625","7.83147671543277","","Parent30814"
"de:08311:30807:0:2","Freiburg, Elsässer Straße","48.0095334079666","7.83126111976455","","Parent30814"
"de:08311:30808:0:5","Freiburg, Berliner Allee","48.0074720082353","7.82937465766764","","Parent30808"
"de:08311:30808:0:6","Freiburg, Berliner Allee","48.0074539781365","7.82932974190343","","Parent30808"
"de:08311:30809:0:5","Freiburg, Killianstraße","48.0054586082641","7.83441420641225","","Parent30809"
"de:08311:30809:0:6","Freiburg, Killianstraße","48.005296330814","7.83461183577479","","Parent30809"
"de:08311:30810:1:1","Freiburg, Robert-Koch-Straße","48.0036194339341","7.8364982978717","","Parent30810"
"de:08311:30810:1:2","Freiburg, Robert-Koch-Straße","48.0036074129712","7.83641744949612","","Parent30810"
"de:08311:30811:0:1","Freiburg, Friedrich-Ebert-Platz","48.0033850246511","7.84098089114008","","Parent30811"
"de:08311:30811:0:2","Freiburg, Friedrich-Ebert-Platz","48.0033609826131","7.84084614384744","","Parent30811"
"de:08311:30812:0:1","Freiburg, Am Flughafen","48.0228193455294","7.83982206442341","","Parent30812"
"de:08311:30812:0:2","Freiburg, Am Flughafen","48.0226991805244","7.83962443506087","","Parent30812"
"de:08311:30813:0:2","Freiburg, Technische Fakultät","48.0120093826863","7.8364982978717","","Parent30813"
"de:08311:30813:0:3","Freiburg, Technische Fakultät","48.0120454396924","7.83559998258746","","Parent30813"
"de:08311:30813:0:4","Freiburg, Technische Fakultät","48.0121656295305","7.8352496396266","","Parent30813"
"de:08311:30813:0:5","Freiburg, Technische Fakultät","48.0121295726085","7.8354832016005","","Parent30813"
"de:08311:30813:0:6","Freiburg, Technische Fakultät","48.012063468186","7.83528557223797","","Parent30813"
"de:08311:30813:0:7","Freiburg, Technische Fakultät","48.011678858956","7.83471065045605","","Parent30813"
"de:08311:30815:0:1","Freiburg, Wirthstraße","48.0269768821852","7.81210005475162","","Parent30815"
"de:08311:30815:0:2","Freiburg, Wirthstraße","48.027289284688","7.8118844590834","","Parent30815"
"de:08311:30820:0:1","Freiburg, CVUA Freiburg","48.032966269513","7.8037367394553","","Parent30820"
"de:08311:30820:0:2","Freiburg, CVUA Freiburg","48.0330804035355","7.80332351442455","","Parent30820"
"de:08311:30821:0:1","Freiburg, Hochdorf Vorstadt","48.0460179586215","7.80280249155969","","Parent30821"
"de:08311:30821:0:2","Freiburg, Hochdorf Vorstadt","48.0461200526802","7.80204790672092","","Parent30821"
"de:08311:30821:0:3","Freiburg, Hochdorf Vorstadt","48.0457477086658","7.80205688987376","","Parent30821"
"de:08311:30822:0:1","Freiburg, Hochdorf Dorfplatz","48.049921410927","7.80202994041524","","Parent30822"
"de:08311:30822:0:2","Freiburg, Hochdorf Dorfplatz","48.0496691967955","7.80185926051123","","Parent30822"
"de:08311:30822:0:4","Freiburg, Hochdorf Dorfplatz","48.0493449196686","7.80229943500051","","Parent30822"
"de:08311:30822:0:5","Freiburg, Hochdorf Dorfplatz","48.0492548423265","7.80220062031924","","Parent30822"
"de:08311:30823:0:1","Freiburg, St.-Agatha Weg","48.0570489519415","7.80957578880289","","Parent30823"
"de:08311:30823:0:2","Freiburg, St.-Agatha Weg","48.0568327983976","7.80856069253169","","Parent30823"
"de:08311:30824:0:1","Freiburg, Kandelblickstraße","48.0479096686079","7.80726711852238","","Parent30824"
"de:08311:30825:0:1","Freiburg, Beschläge Koch","48.0413994922247","7.81367210649905","","Parent30825"
"de:08311:30825:0:2","Freiburg, Beschläge Koch","48.0412553461678","7.81364515704052","","Parent30825"
"de:08311:30827:0:1","Freiburg, Streck Transport","48.0353930647947","7.80966562033132","","Parent30827"
"de:08311:30828:0:1","Freiburg, Högestraße","48.0474652731408","7.80708745546553","","Parent30828"
"de:08311:30828:0:2","Freiburg, Högestraße","48.0473571763663","7.80701559024279","","Parent30828"
"de:08311:30829:0:1","Freiburg, Benzhauser Straße","48.0529658983487","7.80211078879082","","Parent30829"
"de:08311:30829:0:2","Freiburg, Benzhauser Straße","48.0528037704199","7.80245214859883","","Parent30829"
"de:08311:30829:0:4","Freiburg, Benzhauser Straße","48.0526836753287","7.80239824968178","","Parent30829"
"de:08311:30829:0:5","Freiburg, Benzhauser Straße","48.0529358746967","7.80209282248513","","Parent30829"
"de:08311:30830:0:1","Freiburg, Christ","48.0383483146","7.79681072861378","","Parent30830"
"de:08311:30830:0:2","Freiburg, Christ","48.0378497782464","7.79672089708535","","Parent30830"
"de:08311:30831:0:1","Freiburg, An der Hohlgasse","48.0520892005027","7.79917329781134","","Parent30831"
"de:08311:30831:0:2","Freiburg, An der Hohlgasse","48.0521252294754","7.79913736519997","","Parent30831"
"de:08311:30832:0:1","Freiburg, Leinenweberstraße","48.0375134136438","7.81280972382617","","Parent30832"
"de:08311:30832:0:2","Freiburg, Leinenweberstraße","48.0368406778506","7.81031240733597","","Parent30832"
"de:08311:30833:0:1","Freiburg, Zum Roten Stein","48.0511344235412","7.7966669981683","","Parent30833"
"de:08311:30833:0:2","Freiburg, Zum Roten Stein","48.0511764581195","7.79661309925124","","Parent30833"
"de:08311:30834:0:1","Freiburg, Hanferstraße","48.0387267184913","7.81537890553911","","Parent30834"
"de:08311:30834:0:2","Freiburg, Hanferstraße","48.0385825649557","7.81536992238627","","Parent30834"
"de:08311:30835:0:1","Freiburg, Am Sender","48.0134816899299","7.79192389346749","","Parent30835"
"de:08311:30835:0:2","Freiburg, Am Sender","48.0134997179213","7.79200474184307","","Parent30835"
"de:08311:30836:0:1","Freiburg, Idingerstraße","48.0059514477605","7.82607784057446","","Parent30836"
"de:08311:30836:0:2","Freiburg, Idingerstraße","48.0060536212131","7.82590716067046","","Parent30836"
"de:08311:30901:0:1","Freiburg, Lehener Straße","48.0004698458556","7.8376840740469","","Parent30901"
"de:08311:30901:0:2","Freiburg, Lehener Straße","48.001467636935","7.83850154095557","","Parent30901"
"de:08311:30916:0:1","Freiburg, Bettina-von-Arnim-Str.","47.9949936729204","7.7881599524265","","Parent30916"
"de:08311:30916:0:2","Freiburg, Bettina-von-Arnim-Str.","47.9954625666818","7.78903131825222","","Parent30916"
"de:08311:30938:0:1","Freiburg, Schaub","47.9831917768946","7.77941036155796","","Parent30938"
"de:08311:30938:0:2","Freiburg, Schaub","47.9829151845637","7.77917679958405","","Parent30938"
"de:08311:30939:0:1","Freiburg, Stryker","47.9860417941614","7.78165614976857","","Parent30939"
"de:08311:30939:0:2","Freiburg, Stryker","47.9857832547815","7.78272514495682","","Parent30939"
"de:08311:30943:0:1","Freiburg, Am Sportplatz","47.9691077363859","7.91071710665599","","Parent30943"
"de:08311:30943:0:2","Freiburg, Am Sportplatz","47.9686506322849","7.91047456152924","","Parent30943"
"de:08311:30950:0:1","Freiburg, Lehen Gew.gebiet Mitte","48.0240329963784","7.7947625697657","","Parent30950"
"de:08311:30950:0:2","Freiburg, Lehen Gew.gebiet Mitte","48.0240149720698","7.79471765400149","","Parent30950"
"de:08311:30951:0:1","Freiburg, Lehen Gew.gebiet Nord","48.0272171919708","7.7936845914246","","Parent30951"
"de:08311:30951:0:2","Freiburg, Lehen Gew.gebiet Nord","48.0273493618753","7.7937474734945","","Parent30951"
"de:08311:30978:0:1","Freiburg, FWTM Neuer Messplatz","48.0123399042982","7.84006460955015","","Parent30978"
"de:08311:30978:0:2","Freiburg, FWTM Neuer Messplatz","48.0129708942198","7.84070241340197","","Parent30978"
"de:08311:30979:0:1","Freiburg, Europa-Park Stadion","48.0140285361996","7.83660609570581","","Parent30979"
"de:08311:30979:0:2","Freiburg, Europa-Park Stadion","48.0149058818346","7.8365611799416","","Parent30979"
"de:08311:32417:0:1","Freiburg, Rehlingstraße","47.9903826573048","7.83777390557533","","Parent30417"
"de:08311:32417:0:2","Freiburg, Rehlingstraße","47.9898355603134","7.83718101748773","","Parent30417"
"de:08311:6508:1:1","Freiburg, Hauptbahnhof","47.9966648389077","7.84009155900868","","Parent30107"
"de:08311:6508:2:2","Freiburg, Hauptbahnhof","47.9965446129457","7.84053173349796","","Parent30107"
"de:08311:6508:3:1","Freiburg, Hauptbahnhof","47.9968331547837","7.84141208247652","","Parent30107"
"de:08311:6508:3:14","Freiburg, Hauptbahnhof","47.9964844998597","7.84145699824073","","Parent30107"
"de:08311:6508:3:15","Freiburg, Hauptbahnhof","47.9961117971632","7.84138513301799","","Parent30107"
"de:08311:6508:3:8","Freiburg, Hauptbahnhof","47.9958953879104","7.84049580088659","","Parent30107"
"de:08311:750:1:1","Freiburg, Gundelfinger Straße","48.0348224177665","7.86335792487061","","Parent30430"
"de:08311:750:1:2","Freiburg, Gundelfinger Straße","48.034816410922","7.86341182378767","","Parent30430"
"de:08311:750:1:3","Freiburg, Gundelfinger Straße","48.03502064324","7.86291775038133","","Parent30430"
"de:08311:750:2:4","Freiburg, Gundelfinger Straße","48.0348764793349","7.86327707649503","","Parent30430"
"de:08311:750:2:5","Freiburg, Gundelfinger Straße","48.0350506773362","7.86333995856493","","Parent30430"
"de:08311:750:2:6","Freiburg, Gundelfinger Straße","48.0352368883414","7.86338487432914","","Parent30430"
"de:08311:750:2:7","Freiburg, Gundelfinger Straße","48.0350566841533","7.86296266614555","","Parent30430"
"de:08311:750:2:8","Freiburg, Gundelfinger Straße","48.0349305408466","7.86309741343818","","Parent30430"
"de:08311:8:0:1","Freiburg, Industriepark Ost","48.0203438898748","7.84581382736932","","Parent8"
"de:08311:8:0:2","Freiburg, Industriepark Ost","48.0200254367072","7.84461906804127","","Parent8"
"de:08315:20024:0:2","Gundelfingen, Steinackerstraße","48.047441251655","7.86597202234776","","Parent30024"
"de:08315:293:0:1","Wolfenweiler B3","47.9595197318905","7.76494748548162","","Parent293"
"de:08315:30010:0:1","Umkirch Im Stöckacker","48.0435135880535","7.76480375503614","","Parent30010"
"de:08315:30011:0:1","Umkirch Im Brunnenfeld","48.0415436378783","7.76263881520111","","Parent30011"
"de:08315:30017:0:1","Hochstetten, Hochstetterstraße","48.0214434394631","7.60689789437163","","Parent30017"
"de:08315:30017:0:2","Hochstetten, Hochstetterstraße","48.0211910858935","7.60681704599605","","Parent30017"
"de:08315:30020:0:1","Gundelfingen, Schwarzwaldstraße","48.0381320825571","7.86501082499362","","Parent30020"
"de:08315:30020:0:2","Gundelfingen, Schwarzwaldstraße","48.0379158496067","7.86477726301972","","Parent30020"
"de:08315:30021:0:1","Gundelfingen, Auf der Höhe","48.0405225974753","7.86590015712503","","Parent30021"
"de:08315:30021:0:2","Gundelfingen, Auf der Höhe","48.0398318821978","7.86505574075783","","Parent30021"
"de:08315:30022:0:1","Gundelfingen, Rathaus West","48.0429490368631","7.8657474435267","","Parent30022"
"de:08315:30022:0:2","Gundelfingen, Rathaus West","48.0430151016838","7.86585524136081","","Parent30022"
"de:08315:30023:0:1","Gundelfingen, Vörstetter Straße","48.0453213114077","7.86424725700202","","Parent30023"
"de:08315:30023:0:2","Gundelfingen, Vörstetter Straße","48.0459158643605","7.8643281053776","","Parent30023"
"de:08315:30027:0:2","Gundelfingen, Waldstraße","48.0442643114348","7.87831487435329","","Parent30027"
"de:08315:30028:0:1","Gundelfingen, Rosenstraße","48.0460539918418","7.8704456324633","","Parent30028"
"de:08315:30028:0:2","Gundelfingen, Rosenstraße","48.045057063448","7.87016715472519","","Parent30028"
"de:08315:30029:0:1","Gundelfingen, Obermattenbad","48.0391892083619","7.87071512704858","","Parent30029"
"de:08315:30029:0:2","Gundelfingen, Obermattenbad","48.0392432653485","7.87082292488269","","Parent30029"
"de:08315:30030:0:1","Wildtal Sonnenwiese","48.0341736745213","7.87684163728712","","Parent30030"
"de:08315:30030:0:2","Wildtal Sonnenwiese","48.0348704724968","7.87654519324332","","Parent30030"
"de:08315:30031:0:1","Wildtal Steinmattenstraße","48.0322634386451","7.87251175761707","","Parent30031"
"de:08315:30031:0:2","Wildtal Steinmattenstraße","48.0315245548327","7.87171225701409","","Parent30031"
"de:08315:30032:0:2","Gundelfingen, Am Waldfriedhof","48.0462221465365","7.8766260416189","","Parent30032"
"de:08315:30033:0:1","Gundelfingen, Klosterweg","48.0451411424913","7.86244164328068","","Parent30033"
"de:08315:30033:0:2","Gundelfingen, Klosterweg","48.0449849955873","7.8622979128352","","Parent30033"
"de:08315:30034:0:1","Gundelfingen, Hansjakobstraße","48.0394114422774","7.86152536169075","","Parent30034"
"de:08315:30034:0:2","Gundelfingen, Hansjakobstraße","48.0395195557275","7.86133671548106","","Parent30034"
"de:08315:30035:0:2","Gundelfingen, Fichtenstraße","48.0465584542789","7.87041868300478","","Parent30035"
"de:08315:30040:0:2","Horben Rathaus","47.9352229574323","7.85840820765443","","Parent30040"
"de:08315:30041:0:1","Horben Heubuck","47.9380936765391","7.85788718478956","","Parent30041"
"de:08315:30041:0:2","Horben Heubuck","47.9386172496301","7.85761769020429","","Parent30041"
"de:08315:30042:0:1","Horben Engel","47.9430222753108","7.85739311138323","","Parent30042"
"de:08315:30042:0:2","Horben Engel","47.9430343103859","7.85731226300765","","Parent30042"
"de:08315:30043:0:1","Horben Vogtsweg","47.9387797367526","7.86310639659102","","Parent30043"
"de:08315:30043:0:2","Horben Vogtsweg","47.9386593759701","7.86310639659102","","Parent30043"
"de:08315:30044:0:1","Oberrimsingen, Friedhof","47.9838892640177","7.64583986194363","","Parent30044"
"de:08315:30044:0:2","Oberrimsingen, Friedhof","47.9843522459555","7.64579494617942","","Parent30044"
"de:08315:30045:0:1","Horben Friedrichshof","47.9398810249005","7.86745424256677","","Parent30045"
"de:08315:30045:0:2","Horben Friedrichshof","47.9400555438197","7.86748119202529","","Parent30045"
"de:08315:30046:0:1","Horben Küchlin","47.9465183468097","7.86722068059286","","Parent30046"
"de:08315:30046:0:2","Horben Küchlin","47.9465544495848","7.86713983221728","","Parent30046"
"de:08315:30047:0:1","Horben Bernauer","47.9504654342011","7.86560371308122","","Parent30047"
"de:08315:30047:0:2","Horben Bernauer","47.9503390839399","7.86555879731701","","Parent30047"
"de:08315:30048:0:1","Schauinslandbahn-Tal.","47.9363784861761","7.86512760598058","","Parent30048"
"de:08315:30050:0:1","Umkirch, Im Brünneleacker","48.0292898173644","7.77181959740609","","Parent30050"
"de:08315:30050:0:2","Umkirch, Im Brünneleacker","48.0293859370993","7.77094823158037","","Parent30050"
"de:08315:30051:0:1","Umkirch, Hauptstraße","48.0311100543968","7.76798379114237","","Parent30051"
"de:08315:30051:0:2","Umkirch, Hauptstraße","48.0309298357761","7.76809158897648","","Parent30051"
"de:08315:30052:0:1","Umkirch, Adler","48.0319030088406","7.76242321953289","","Parent30052"
"de:08315:30052:0:2","Umkirch, Adler","48.0315605981912","7.76300712446765","","Parent30052"
"de:08315:30053:0:1","Umkirch, Landhaus","48.0289473893516","7.75843469967085","","Parent30053"
"de:08315:30053:0:2","Umkirch, Landhaus","48.0289954495608","7.75896470568855","","Parent30053"
"de:08315:30059:0:1","Umkirch Am Gansacker","48.0367385653999","7.76215372494762","","Parent30059"
"de:08315:30091:0:1","Merdingen, Brücke","48.0184511676223","7.68573404371694","","Parent30091"
"de:08315:30091:0:2","Merdingen, Brücke","48.0184752026261","7.68551844804872","","Parent30091"
"de:08315:30092:0:1","Merdingen, Sonne","48.0171953230818","7.6894081532295","","Parent30092"
"de:08315:30092:0:2","Merdingen, Sonne","48.0164442052687","7.69054003048764","","Parent30092"
"de:08315:30093:0:1","Gündlingen, Hauptstraße","48.0113603522661","7.64146506650936","","Parent30093"
"de:08315:30093:0:2","Gündlingen, Hauptstraße","48.0111920837867","7.64139320128662","","Parent30093"
"de:08315:30094:0:1","Gündlingen, Ihringer Straße","48.0158072487893","7.64159083064916","","Parent30094"
"de:08315:30094:0:2","Gündlingen, Ihringer Straße","48.0157291309435","7.64161778010768","","Parent30094"
"de:08315:30096:0:1","Oberrimsingen, Schloss Rimsingen","47.9795899477127","7.66006019289322","","Parent30096"
"de:08315:30096:0:2","Oberrimsingen, Schloss Rimsingen","47.9791750297121","7.66175800878045","","Parent30096"
"de:08315:30097:0:1","Oberrimsingen, Dorfplatz","47.9802694439027","7.66432719049339","","Parent30097"
"de:08315:30097:0:2","Oberrimsingen, Dorfplatz","47.980768537177","7.6649021122753","","Parent30097"
"de:08315:30098:0:1","Niederrimsingen, Tanne","47.9849595276559","7.66797435054742","","Parent30098"
"de:08315:30098:0:2","Niederrimsingen, Tanne","47.9850797806105","7.66815401360427","","Parent30098"
"de:08315:30099:0:1","Niederrimsingen, Rathaus","47.9861379945304","7.6712082855707","","Parent30099"
"de:08315:30099:0:2","Niederrimsingen, Rathaus","47.9862221697061","7.67133404971049","","Parent30099"
"de:08315:30130:0:2","Gündlingen, Breisacher Straße","48.0108916029936","7.64118658877125","","Parent30339"
"de:08315:30433:0:1","Gundelfingen, Blumenstraße","48.0482519706101","7.86439098744749","","Parent30433"
"de:08315:30433:0:2","Gundelfingen, Blumenstraße","48.0479937429946","7.86436403798897","","Parent30433"
"de:08315:30435:0:1","Merdingen, Emletweg","48.0131031006536","7.67285220254087","","Parent30435"
"de:08315:30484:0:1","Gundelfingen, Industriestraße","48.0373151977604","7.86351063846894","","Parent30484"
"de:08315:30484:0:2","Gundelfingen, Industriestraße","48.0372250993795","7.86347470585756","","Parent30484"
"de:08315:30736:0:1","Umkirch Rohrmatten","48.0395976375226","7.76382459137631","","Parent30736"
"de:08315:30736:0:2","Umkirch Rohrmatten","48.0396577003614","7.76377069245926","","Parent30736"
"de:08315:30902:0:1","Gundelfingen, Sonne-Platz","48.0429190073712","7.86800221489016","","Parent30902"
"de:08315:30902:0:2","Gundelfingen, Sonne-Platz","48.0427148063617","7.86736441103834","","Parent30902"
"de:08315:30903:0:1","Gundelfingen, Rathaus Ost","48.0422403361846","7.86737339419119","","Parent30903"
"de:08315:30903:0:2","Gundelfingen, Rathaus Ost","48.042216312262","7.86774170345773","","Parent30903"
"de:08315:30918:0:1","Umkirch, Am Schloss","48.0310319597385","7.761048797148","","Parent30918"
"de:08315:30918:0:2","Umkirch, Am Schloss","48.030719579922","7.7611116792179","","Parent30918"
"de:08315:30923:0:1","Umkirch, Brugesstraße","48.0278359845116","7.77578116780961","","Parent30923"
"de:08315:30923:0:2","Umkirch, Brugesstraße","48.0278239691932","7.77559252159992","","Parent30923"
"de:08315:30924:0:1","Umkirch, Gärtnerei","48.0356453488346","7.76148897163728","","Parent30924"
"de:08315:30924:0:2","Umkirch, Gärtnerei","48.0362880668778","7.76181236513961","","Parent30924"
"de:08315:31038:0:1","Hochstetten, Adler","48.0189739264281","7.6103204756046","","Parent30037"
"de:08315:31038:0:2","Hochstetten, Adler","48.0188297176318","7.61078759955241","","Parent30037"
"de:08315:31039:0:1","Gündlingen, Kindergarten","48.0143710633266","7.63868927228105","","Parent30039"
"de:08315:31039:0:2","Gündlingen, Kindergarten","48.0141427121614","7.63927317721581","","Parent30039"
"de:08315:31040:0:1","Gündlingen, Schulweg","48.0119973636787","7.63752146241153","","Parent30038"
"de:08315:31040:0:2","Gündlingen, Schulweg","48.0118110687024","7.63750349610584","","Parent30038"
"de:08315:5121:0:1","Mengen Adler","47.9591407465952","7.71194688371119","","Parent5121"
"de:08315:5121:0:2","Mengen Adler","47.9589482450631","7.71230620982489","","Parent5121"
"de:08315:5220:0:1","Munzingen, Romanstraße","47.9678988075301","7.69924470559197","","Parent5220"
"de:08315:5220:0:2","Munzingen, Romanstraße","47.9679649685477","7.69906504253512","","Parent5220"
"de:08315:5221:0:1","Beim Oberen Bäumle","47.9574743814395","7.71724694388823","","Parent5221"
"de:08315:5221:0:2","Beim Oberen Bäumle","47.9573480483153","7.71736372487519","","Parent5221"
"de:08315:53:2:2","Wasenweiler, Sonne","48.0514767041101","7.68112568630876","","Parent53"
"de:08315:54:2:2","Ihringen Winzerstube","48.0423904854475","7.65110398950931","","Parent54"
"de:08315:638:0:2","Wolfenweiler Weinstraße Straße","47.9568848242172","7.75997980195975","","Parent596"
"de:08315:6504:3:10","Breisach, Bahnhof","48.0277518772239","7.59044075836427","","Parent30018"
"de:08315:6504:3:6","Breisach, Bahnhof","48.027703815855","7.59022516269605","","Parent30018"
"de:08315:6514:4:2","Gundelfingen, Gundelfingen Bf.","48.043873936642","7.87451500070093","","Parent30036"
"de:08315:6517:2:3","Ihringen Bf","48.0405225974753","7.64854379094921","","Parent6517"
"de:08315:6521:3:2","Hugstetten Bahnhof","48.0478075780966","7.78480025326343","","Parent6521"
"de:08315:6677:4:1","Schallstadt Bhf.","47.9562651802941","7.75376346019278","","Parent248"
"de:08315:6677:4:2","Schallstadt Bhf.","47.9561147801629","7.7531975215637","","Parent248"
"Parent248","Schallstadt Bhf.","47.9561809562746","7.75350294876035","1",""
"Parent293","Wolfenweiler B3","47.9593813725017","7.76482172134183","1",""
"Parent30010","Umkirch Im Stöckacker","48.0435676405025","7.7647947718833","1",""
"Parent30011","Umkirch Im Brunnenfeld","48.0415316257559","7.76255796682553","1",""
"Parent30017","Hochstetten, Hochstetterstraße","48.0213232712507","7.60685297860742","1",""
"Parent30018","Breisach, Bahnhof","48.0276437390809","7.59018024693184","1",""
"Parent30020","Gundelfingen, Schwarzwaldstraße","48.0380059467797","7.86487607770099","1",""
"Parent30021","Gundelfingen, Auf der Höhe","48.0401261881005","7.86545998263574","1",""
"Parent30022","Gundelfingen, Rathaus West","48.0429850722304","7.86579235929092","1",""
"Parent30023","Gundelfingen, Vörstetter Straße","48.0456636306126","7.86429217276623","1",""
"Parent30024","Gundelfingen, Steinackerstraße","48.0476754606639","7.86618761801598","1",""
"Parent30027","Gundelfingen, Waldstraße","48.0442342827096","7.87827894174192","1",""
"Parent30028","Gundelfingen, Rosenstraße","48.0455495244638","7.87031986832351","1",""
"Parent30029","Gundelfingen, Obermattenbad","48.0392072273637","7.87076902596563","1",""
"Parent30030","Wildtal Sonnenwiese","48.0345581159489","7.87671587314733","1",""
"Parent30031","Wildtal Steinmattenstraße","48.0318789800974","7.87210751573916","1",""
"Parent30032","Gundelfingen, Am Waldfriedhof","48.0461981244708","7.87666197423028","1",""
"Parent30033","Gundelfingen, Klosterweg","48.045057063448","7.86237876121079","1",""
"Parent30034","Gundelfingen, Hansjakobstraße","48.0394654990308","7.86139959755096","1",""
"Parent30035","Gundelfingen, Fichtenstraße","48.0465704652291","7.87047258192183","1",""
"Parent30036","Gundelfingen, Gundelfingen Bf.","48.0438379018966","7.87455991646514","1",""
"Parent30037","Hochstetten, Adler","48.0188958133802","7.61054505442566","1",""
"Parent30038","Gündlingen, Schulweg","48.0119192400609","7.637494512953","1",""
"Parent30039","Gündlingen, Kindergarten","48.0142568878704","7.63895876686632","1",""
"Parent30040","Horben Rathaus","47.9352771234191","7.85848007287716","1",""
"Parent30041","Horben Heubuck","47.9383524547065","7.85774345434408","1",""
"Parent30042","Horben Engel","47.9430282928487","7.85734819561902","1",""
"Parent30043","Horben Vogtsweg","47.9387255744351","7.86310639659102","1",""
"Parent30044","Oberrimsingen, Friedhof","47.9841177491294","7.64582189563795","1",""
"Parent30045","Horben Friedrichshof","47.9399652754868","7.86745424256677","1",""
"Parent30046","Horben Küchlin","47.9465363982004","7.86717576482865","1",""
"Parent30047","Horben Bernauer","47.9504052674486","7.8655767636227","1",""
"Parent30048","Schauinslandbahn-Tal.","47.9362882114229","7.86510065652205","1",""
"Parent30050","Umkirch, Im Brünneleacker","48.029325862286","7.77138840606965","1",""
"Parent30051","Umkirch, Hauptstraße","48.0310079305891","7.76801972375374","1",""
"Parent30052","Umkirch, Adler","48.0317167857872","7.76266576465964","1",""
"Parent30053","Umkirch, Landhaus","48.0289594044081","7.75871317740896","1",""
"Parent30054","Freiburg, Schutternstraße","48.0238287205127","7.72465804498325","1",""
"Parent30055","Freiburg, Waltershofen Ochsen","48.0234502072102","7.71925917012494","1",""
"Parent30056","Freiburg, Am Weiher","48.0218820510613","7.7204988452172","1",""
"Parent30059","Umkirch Am Gansacker","48.0369367835017","7.76225253962889","1",""
"Parent30060","Freiburg, Kleingärten","47.9982157287","7.74072890541839","1",""
"Parent30061","Freiburg, Opfingen Ziegelei","47.9990933433538","7.7270385804865","1",""
"Parent30062","Freiburg, Gewerbestraße","47.9991113763751","7.71791169719858","1",""
"Parent30063","Freiburg, Im Hausgarten","47.9971878185822","7.7127733337727","1",""
"Parent30064","Freiburg, Opfingen Rathaus","48.000271487498","7.7155042122368","1",""
"Parent30065","Freiburg, Unterdorf","48.0044368528434","7.72007663703361","1",""
"Parent30066","Freiburg, St. Nikolaus","48.0121776484989","7.72340938673815","1",""
"Parent30067","Freiburg, Wippertskirch","48.0120694776824","7.71013228683702","1",""
"Parent30069","Freiburg, Max-Planck-Institut","48.0252346027304","7.84922742544945","1",""
"Parent30077","Freiburg, Hofmattstraße","47.9996944406666","7.71894475977546","1",""
"Parent30078","Freiburg, Freiburger Landstraße","47.9822056583291","7.71581862258629","1",""
"Parent30080","Freiburg, Im Maierbrühl","47.9825363709231","7.71892679346977","1",""
"Parent30081","Freiburg, Etzmattenstraße","47.9880619642563","7.71546827962543","1",""
"Parent30082","Freiburg, Vogteistraße","47.9829452490193","7.71457894749403","1",""
"Parent30083","Freiburg, Siedlerhöfe","47.9789284826541","7.70763497034682","1",""
"Parent30084","Munzingen, Häusleacker","47.9728065220578","7.70112218453604","1",""
"Parent30085","Munzingen, Apotheke","47.9690596203553","7.69975674530399","1",""
"Parent30086","Munzingen, Windhäuslegasse","47.9676582212971","7.69561551184363","1",""
"Parent30089","Freiburg, Im Hubhof","47.9903766452814","7.71735474172234","1",""
"Parent30091","Merdingen, Brücke","48.0184571763743","7.68560827957714","1",""
"Parent30092","Merdingen, Sonne","48.0168768504652","7.68992917609436","1",""
"Parent30093","Gündlingen, Hauptstraße","48.0112702085061","7.64141116759231","1",""
"Parent30094","Gündlingen, Ihringer Straße","48.0157711944136","7.64159083064916","1",""
"Parent30096","Oberrimsingen, Schloss Rimsingen","47.979553868019","7.66106630601158","1",""
"Parent30097","Oberrimsingen, Dorfplatz","47.9804678791558","7.66471346606561","1",""
"Parent30098","Niederrimsingen, Tanne","47.9850256668156","7.66808214838153","1",""
"Parent30099","Niederrimsingen, Rathaus","47.9861921071591","7.67128015079344","1",""
"Parent30100","Freiburg, Bertoldsbrunnen","47.9948734430644","7.84985624614842","1",""
"Parent30101","Freiburg, Europaplatz","47.9978791054195","7.85278475397505","1",""
"Parent30102","Freiburg, Tennenbacher Straße","48.0030304034546","7.85462630030776","1",""
"Parent30103","Freiburg, Holzmarkt","47.9919818306401","7.84856267213911","1",""
"Parent30104","Freiburg, Johanneskirche","47.9893365547034","7.84798775035719","1",""
"Parent30105","Freiburg, Fahnenbergplatz","47.998179662025","7.84823029548393","1",""
"Parent30106","Freiburg, Stadttheater","47.995408463773","7.84591264205058","1",""
"Parent30107","Freiburg, Hauptbahnhof","47.9965145564115","7.84072936286049","1",""
"Parent30108","Freiburg, Eschholzstraße","47.9982277509194","7.83604914022958","1",""
"Parent30109","Freiburg, Kreuzstraße","48.0016118942894","7.84187920642433","1",""
"Parent30112","Freiburg, Faulerstraße","47.9928355043877","7.83873510292947","1",""
"Parent30114","Freiburg, Erbprinzenstraße","47.9925589637342","7.84531077081014","1",""
"Parent30115","Freiburg, Stadtgarten","47.9979392168807","7.85637801511203","1",""
"Parent30116","Freiburg, Hochmeisterstraße","48.0005660193302","7.85871363485107","1",""
"Parent30117","Freiburg, Starkenstraße","48.0025796102788","7.8601599224587","1",""
"Parent30118","Freiburg, Oberlinden","47.9938334431179","7.85345849043824","1",""
"Parent30119","Freiburg, Schwabentorbrücke","47.9906592096209","7.85447358670943","1",""
"Parent30120","Freiburg, Brauerei Ganter","47.9893545911348","7.85839922450158","1",""
"Parent30123","Freiburg, Mattenstraße","47.989565015702","7.84328956142059","1",""
"Parent30124","Freiburg, Schwabentorplatz","47.9924747988934","7.85413222690142","1",""
"Parent30126","Freiburg, Am Planetarium","48.0002113787542","7.84361295492292","1",""
"Parent30129","Freiburg, Wihlerweg","47.9824642156287","7.80436556015427","1",""
"Parent30130","Freiburg, Nelly-Sachs-Straße","47.9968391660548","7.78969607156256","1",""
"Parent30131","Freiburg, Peter-Thumb-Straße","47.9787781485043","7.83109942301339","1",""
"Parent30200","Freiburg, Hornusstraße","48.0153445490541","7.85519223893683","1",""
"Parent30201","Freiburg, Tullastraße","48.0193885244706","7.85691700428258","1",""
"Parent30202","Freiburg, Reutebachgasse","48.0226090565868","7.8583812581959","1",""
"Parent30203","Freiburg, Okenstraße","48.0107053040225","7.85453646877933","1",""
"Parent30204","Freiburg, Hauptstraße","48.0067688297141","7.85525512100673","1",""
"Parent30205","Freiburg, Hauptfriedhof","48.0075080684138","7.84575992845226","1",""
"Parent30206","Freiburg, Rennweg","48.0089143957122","7.84837402592941","1",""
"Parent30207","Freiburg, Eichstetter Straße","48.0102545779217","7.85026947117917","1",""
"Parent30208","Freiburg, Komturplatz","48.0127184991777","7.85410527744289","1",""
"Parent30209","Freiburg, Engesserstraße","48.0217678922374","7.84995506082968","1",""
"Parent30210","Freiburg, Industriepark","48.0198812308522","7.84058563241501","1",""
"Parent30211","Freiburg, IKEA","48.0283706633452","7.83469268415037","1",""
"Parent30212","Freiburg, Haslacher Straße","47.995408463773","7.82506274430327","1",""
"Parent30213","Freiburg, Hans-Bunte-Str. Mitte","48.0290615322753","7.85494071065724","1",""
"Parent30214","Freiburg, Hans-Bunte-Str. Nord","48.0310379670241","7.85900109574203","1",""
"Parent30215","Freiburg, Stübeweg","48.0275596314794","7.85260509091821","1",""
"Parent30217","Freiburg, Bernlappstraße","48.0257633006512","7.8638430151241","1",""
"Parent30218","Freiburg, Wildtalstraße","48.0296082132998","7.86615168540461","1",""
"Parent30219","Freiburg, badenova","48.0275175776272","7.84608332195459","1",""
"Parent30220","Freiburg, Schlachthof","48.0305513746211","7.84278650486141","1",""
"Parent30221","Freiburg, Wöhlerstraße","48.0330443612399","7.84927234121366","1",""
"Parent30223","Freiburg, Auerstraße","48.0304132055704","7.8508893087253","1",""
"Parent30224","Freiburg, Albertstraße","48.0016539692752","7.84565213061815","1",""
"Parent30225","Freiburg, Immentalstraße","48.0047253505422","7.86296266614555","1",""
"Parent30226","Freiburg, Herdern Kirche","48.0065164043168","7.86327707649503","1",""
"Parent30227","Freiburg, Sandstraße","48.0087701587797","7.86254944111479","1",""
"Parent30228","Freiburg, Richard-Strauss-Str.","48.0111920837867","7.86297164929839","1",""
"Parent30230","Freiburg, Mooswaldallee","48.0327500148823","7.86025873713997","1",""
"Parent30233","Freiburg, Sonnenstraße","48.0057771514036","7.84991912821831","1",""
"Parent30234","Freiburg, Messe Freiburg","48.019046030675","7.83950765407392","1",""
"Parent30235","Freiburg, Kaiserstuhlstr. Mitte","48.0109997762808","7.84457415227706","1",""
"Parent30236","Freiburg, Tulpenstraße","48.0028861500669","7.72023833378477","1",""
"Parent30300","Freiburg, Laßbergstraße","47.9843462332297","7.89365809940818","1",""
"Parent30301","Freiburg, Römerhof","47.986113944455","7.88884312948463","1",""
"Parent30302","Freiburg, Hasemannstraße","47.986739242774","7.88400121010255","1",""
"Parent30303","Freiburg, Emil-Gött-Straße","47.9870879635461","7.87887182982952","1",""
"Parent30304","Freiburg, Musikhochschule","47.9879537428628","7.87349092127689","1",""
"Parent30305","Freiburg, Alter Messplatz","47.9885068720451","7.8696191824018","1",""
"Parent30306","Freiburg, Maria-Hilf-Kirche","47.9883986515846","7.86476827986688","1",""
"Parent30310","Freiburg, Päd. Hochschule","47.9812195209255","7.89453844838674","1",""
"Parent30311","Freiburg, Sudetenstraße","47.9786037603421","7.89745797306054","1",""
"Parent30312","Freiburg, Römerstraße","47.9784955191176","7.90019783467748","1",""
"Parent30313","Freiburg, Höllentalstraße","47.9777618781698","7.90341380339508","1",""
"Parent30314","Freiburg, Am Hörchersberg","47.9772026202809","7.90696214876784","1",""
"Parent30315","Freiburg, Löwen","47.9770883625476","7.91085185394862","1",""
"Parent30316","Freiburg, Königsberger Straße","47.975572920274","7.91544224505111","1",""
"Parent30317","Freiburg, Im Schulerdobel","47.9710864693164","7.91078897187873","1",""
"Parent30318","Freiburg, Peterbergstraße","47.9668281901904","7.90924386958983","1",""
"Parent30319","Freiburg, Kleintalstraße","47.9649274890065","7.90831860484705","1",""
"Parent30320","Freiburg, Am Bannwald","47.9627500175155","7.90928878535404","1",""
"Parent30321","Freiburg, Hercherhof","47.9559764116555","7.91274729919838","1",""
"Parent30322","Freiburg, Molzhofsiedlung","47.9505677175197","7.91208254588804","1",""
"Parent30323","Freiburg, R.-Schneider-Straße","47.9815081484569","7.9010692005032","1",""
"Parent30324","Freiburg, Ebneter Straße","47.9825002932885","7.89843713672036","1",""
"Parent30326","Freiburg, Nepomukbrücke","47.9873404840137","7.89815865898225","1",""
"Parent30327","Freiburg, Ebnet-Rathaus","47.9866069687613","7.90456364695891","1",""
"Parent30328","Freiburg, Pfarrheim","47.9884106760914","7.90627942915182","1",""
"Parent30329","Freiburg, Im Gänderle","47.9893245304123","7.9109955843941","1",""
"Parent30330","Freiburg, Langmatten","47.9895830520535","7.91512783470163","1",""
"Parent30331","Freiburg, Zenlinweg","47.9809970361019","7.90390787680141","1",""
"Parent30332","Freiburg, Unteres Grün","47.9843883222957","7.90486009100271","1",""
"Parent30333","Freiburg, Butzenhofstraße","47.951897382239","7.91232509101479","1",""
"Parent30334","Freiburg, Molzhofstraße","47.9515363906759","7.91279221496259","1",""
"Parent30335","Freiburg, Zartener Straße","47.9849956035717","7.90801317765041","1",""
"Parent30337","Freiburg, Heinrich-Heine-Str.","47.9865227942132","7.89580507293753","1",""
"Parent30338","Freiburg, Junghof","47.9586715228541","7.91103151700547","1",""
"Parent30339","Gündlingen, Breisacher Straße","48.0109156415214","7.64114167300703","1",""
"Parent30400","Freiburg, Dorfstraße","47.9647771140917","7.85761769020429","1",""
"Parent30401","Freiburg, Klosterplatz","47.9657334910877","7.85593784062275","1",""
"Parent30402","Freiburg, Wiesenweg","47.9668883378204","7.85282966973927","1",""
"Parent30403","Freiburg, Wonnhalde","47.9746107116176","7.8475026601037","1",""
"Parent30404","Freiburg, Holbeinstraße","47.9794997484311","7.84787995252308","1",""
"Parent30405","Freiburg, Lorettostraße","47.9845687036187","7.84749367695085","1",""
"Parent30408","Freiburg, Reiterstraße","47.9872983973549","7.83943578885118","1",""
"Parent30411","Freiburg, H.-von-Stephan-Straße","47.986354444705","7.83702830388941","1",""
"Parent30412","Freiburg, Vogelsang","47.9618778001494","7.86188468780445","1",""
"Parent30413","Freiburg, Leimeweg","47.9597423092601","7.86358250369167","1",""
"Parent30414","Freiburg, Kyburg","47.9574262545714","7.86369030152578","1",""
"Parent30415","Freiburg, Weddigenstraße","47.9840155322308","7.83651626417739","1",""
"Parent30417","Freiburg, Rehlingstraße","47.990100091451","7.83748644468437","1",""
"Parent30418","Freiburg, Lörracher Straße","47.9794155622926","7.82005912817003","1",""
"Parent30421","Freiburg, Kalkackerweg","47.9801732325963","7.79753836399401","1",""
"Parent30423","Freiburg, Vauban-Mitte","47.9753383835666","7.82248457943748","1",""
"Parent30424","Freiburg, Innsbrucker Straße","47.9765832200652","7.81748994645709","1",""
"Parent30428","Freiburg, Moosackerweg","47.9841418001349","7.79575969973121","1",""
"Parent30429","Freiburg, Hirschenhofweg","47.9861259694941","7.90433906813785","1",""
"Parent30430","Freiburg, Gundelfinger Straße","48.0352368883414","7.86313334604955","1",""
"Parent30431","Freiburg, Berggasse","48.0262259068833","7.86044738334966","1",""
"Parent30432","Freiburg, Glottertalstraße","48.0303351098561","7.86211824977836","1",""
"Parent30433","Gundelfingen, Blumenstraße","48.0481438754868","7.8642652233077","1",""
"Parent30435","Merdingen, Emletweg","48.0130850725235","7.67279830362381","1",""
"Parent30480","Freiburg, Lorettoschule","47.984562690918","7.84402617995367","1",""
"Parent30481","Freiburg, Weiherhofschule","48.0056449261883","7.86310639659102","1",""
"Parent30484","Gundelfingen, Industriestraße","48.0372731518689","7.86349267216325","1",""
"Parent30485","Freiburg, Liebigstraße","48.0161197189889","7.84171750967316","1",""
"Parent30500","Freiburg, Rathaus im Stühlinger","47.9998507248208","7.83244689593976","1",""
"Parent30501","Freiburg, Runzmattenweg","48.0021829090253","7.82529630627717","1",""
"Parent30502","Freiburg, Am Bischofskreuz","48.0069130722436","7.81819961553164","1",""
"Parent30503","Freiburg, Betzenhauser Torplatz","48.01079544877","7.8112915709958","1",""
"Parent30504","Freiburg, Paduaallee","48.0137340812365","7.8074827141906","1",""
"Parent30505","Freiburg, Bissierstraße","48.0020687065838","7.82040048797804","1",""
"Parent30506","Freiburg, Gescheidstraße","48.0143710633266","7.80441945907133","1",""
"Parent30507","Freiburg, Kirchbergstraße","48.0166304835067","7.80078128217014","1",""
"Parent30508","Freiburg, Ziegelhofstraße","48.0167867163487","7.79858040972374","1",""
"Parent30509","Freiburg, Lehen Ziegelei","48.021912092815","7.79511291272655","1",""
"Parent30510","Freiburg, Ferdinand-Weiß-Str.","47.9947652359545","7.8334709753638","1",""
"Parent30511","Freiburg, Vogesenstraße","47.9964965224825","7.82986873107398","1",""
"Parent30512","Freiburg, Draisstraße","47.997969272585","7.83146773227993","1",""
"Parent30513","Freiburg, Mundenhof","48.0084215845277","7.78189869489532","1",""
"Parent30515","Freiburg, Mundenhof Wirtgeb.","48.0159094027167","7.77664355048248","1",""
"Parent30597","Freiburg, Sandfangweg","47.9914287387014","7.88004862285188","1",""
"Parent30598","Freiburg, Rabenkopfstraße","47.9920479608012","7.87305972994045","1",""
"Parent30599","Freiburg, Fabrikstraße","47.9915730241265","7.86261232318469","1",""
"Parent30600","Freiburg, Bugginger Straße","47.9973861887961","7.80693474186721","1",""
"Parent30601","Freiburg, Am Lindenwäldle","47.9946450055662","7.80282944101821","1",""
"Parent30602","Freiburg, Krozinger Straße","47.9930218679053","7.80967460348416","1",""
"Parent30603","Freiburg, Dorfbrunnen","47.9911461785753","7.81636705235178","1",""
"Parent30604","Freiburg, Scherrerplatz","47.9904487895152","7.82006811132287","1",""
"Parent30605","Freiburg, Haslach Bad","47.9895109066095","7.82340086102741","1",""
"Parent30607","Freiburg, Rohrgraben","47.9994359696804","7.81006986220922","1",""
"Parent30609","Freiburg, Rivanerweg","47.9820493207289","7.71154264183328","1",""
"Parent30610","Freiburg, Am Kirchacker","47.9859215434481","7.81140835198275","1",""
"Parent30611","Freiburg, Uffhauser Straße","47.9881521485774","7.81384278640305","1",""
"Parent30612","Freiburg, Belchenstraße","47.9873404840137","7.81828046390722","1",""
"Parent30613","Freiburg, Marienmattenweg","47.9933765579018","7.83059636645421","1",""
"Parent30614","Freiburg, Mühle","47.994837374053","7.82630241939552","1",""
"Parent30615","Freiburg, Laufener Straße","47.9977709046129","7.81796605355773","1",""
"Parent30616","Freiburg, Pressehaus","47.9863123572421","7.82935669136196","1",""
"Parent30617","Freiburg, Markgrafenstraße","47.9935508961589","7.82199050603115","1",""
"Parent30618","Freiburg, Struveweg","47.9874246572284","7.80134722079921","1",""
"Parent30621","Freiburg, Mathias-Blank-Straße","47.9971878185822","7.82139761794355","1",""
"Parent30622","Freiburg, Am Mettweg","47.9829452490193","7.80757254571903","1",""
"Parent30623","Freiburg, Schulstraße","47.9822477491405","7.79892176953175","1",""
"Parent30624","Freiburg, Opfinger See","47.9978310162002","7.74833763587594","1",""
"Parent30651","Freiburg, Paula-Modersohn-Platz","47.9740995309758","7.82768582493326","1",""
"Parent30700","Freiburg, Obergasse","47.9775634325155","7.79496918228107","1",""
"Parent30704","Freiburg, Kapellenwinkel","47.9788623356821","7.80467997050376","1",""
"Parent30705","Freiburg, Schneeburgstraße","47.9787781485043","7.81033037364166","1",""
"Parent30706","Freiburg, Gabelsbergerstraße","47.9782549822506","7.81599874308524","1",""
"Parent30707","Freiburg, Schopfheimer Straße","47.9814239655936","7.82021184176835","1",""
"Parent30708","Freiburg, Bauhöferstraße","47.9849294643735","7.82235881529769","1",""
"Parent30709","Freiburg, Fichtestraße","47.9853924369813","7.82635631831258","1",""
"Parent30711","Freiburg, Schiff","47.982398073187","7.8030809692978","1",""
"Parent30712","Freiburg, Besanconallee","47.9813518087444","7.79504104750381","1",""
"Parent30713","Freiburg, Friedhof St.Georgen","47.9804558527986","7.79014522920468","1",""
"Parent30714","Freiburg, KEIDEL Bad","47.9839674300908","7.76615122796251","1",""
"Parent30715","Freiburg, VAG-Zentrum","47.9920118898148","7.79763717867528","1",""
"Parent30716","Freiburg, Munzinger Straße","47.9882784063623","7.79617292476196","1",""
"Parent30717","Freiburg, Bötzinger Straße","47.9893125061184","7.78928284653181","1",""
"Parent30720","Freiburg, Burkheimer Straße","47.9853202856792","7.78515957937712","1",""
"Parent30721","Freiburg, Rimsinger Weg","47.993304417761","7.78868097529136","1",""
"Parent30722","Freiburg, Riegeler Straße","47.9880559519626","7.78818690188503","1",""
"Parent30725","Freiburg, St. Georgen Kirche","47.9810571672299","7.79408883330252","1",""
"Parent30726","Freiburg, Cardinalweg","47.9781166730446","7.8009429789213","1",""
"Parent30727","Freiburg, Bollerstaudenstraße","48.0007102792059","7.78771977793722","1",""
"Parent30733","Freiburg, Geschw.-Scholl-Platz","47.997524446373","7.79489731705833","1",""
"Parent30734","Freiburg, Maria-von-Rudloff-Platz","47.9992556403185","7.79125914015714","1",""
"Parent30736","Umkirch Rohrmatten","48.0395615997857","7.76374374300073","1",""
"Parent30738","Freiburg, Kunzenweg","47.9800409417572","7.89532896583688","1",""
"Parent30800","Freiburg, Moosweiher","48.0288813064908","7.80857865883738","1",""
"Parent30801","Freiburg, Diakoniekrankenhaus","48.0239368666601","7.81204615583456","1",""
"Parent30802","Freiburg, Moosgrund","48.0183009485942","7.81169581287371","1",""
"Parent30803","Freiburg, Hofackerstraße","48.0181807730566","7.81831639651859","1",""
"Parent30804","Freiburg, Almendweg","48.0156029403273","7.8228888213154","1",""
"Parent30805","Freiburg, Falkenbergerstraße","48.0136739881803","7.82594309328183","1",""
"Parent30806","Freiburg, Robert-Grumbach-Platz","48.0112641989165","7.8298956805325","1",""
"Parent30808","Freiburg, Berliner Allee","48.0074780182668","7.82929380929206","1",""
"Parent30809","Freiburg, Killianstraße","48.0053804747408","7.83450403794068","1",""
"Parent30810","Freiburg, Robert-Koch-Straße","48.0039740510812","7.83692948920814","1",""
"Parent30811","Freiburg, Friedrich-Ebert-Platz","48.0033730036335","7.84090902591734","1",""
"Parent30812","Freiburg, Am Flughafen","48.0227592630619","7.8397142665893","1",""
"Parent30813","Freiburg, Technische Fakultät","48.012171639015","7.83551913421187","1",""
"Parent30814","Freiburg, Elsässer Straße","48.009575476491","7.83136891759866","1",""
"Parent30815","Freiburg, Wirthstraße","48.0271571146294","7.81198327376467","1",""
"Parent30820","Freiburg, CVUA Freiburg","48.0330143259743","7.80353911009277","1",""
"Parent30821","Freiburg, Hochdorf Vorstadt","48.0459579031983","7.80224553608346","1",""
"Parent30822","Freiburg, Hochdorf Dorfplatz","48.0496691967955","7.8019580751925","1",""
"Parent30823","Freiburg, St.-Agatha Weg","48.0571089944315","7.80900086702097","1",""
"Parent30824","Freiburg, Kandelblickstraße","48.0479336898752","7.80717728699396","1",""
"Parent30825","Freiburg, Beschläge Koch","48.0413394314167","7.81364515704052","1",""
"Parent30827","Freiburg, Streck Transport","48.0354351122204","7.80971951924837","1",""
"Parent30828","Freiburg, Högestraße","48.0474172301579","7.80706050600701","1",""
"Parent30829","Freiburg, Benzhauser Straße","48.0528998462912","7.80236231707041","1",""
"Parent30830","Freiburg, Christ","48.0381020502572","7.79678377915525","1",""
"Parent30831","Freiburg, An der Hohlgasse","48.0520651811736","7.7991014325886","1",""
"Parent30832","Freiburg, Leinenweberstraße","48.0372010731179","7.81166886341518","1",""
"Parent30833","Freiburg, Zum Roten Stein","48.0511824630565","7.7966669981683","1",""
"Parent30834","Freiburg, Hanferstraße","48.0386486353763","7.81537890553911","1",""
"Parent30835","Freiburg, Am Sender","48.0134937085915","7.79195982607885","1",""
"Parent30836","Freiburg, Idingerstraße","48.0059995294104","7.8259790258932","1",""
"Parent30901","Freiburg, Lehener Straße","48.000974754597","7.8381691643004","1",""
"Parent30902","Gundelfingen, Sonne-Platz","48.0428349247006","7.86772373715204","1",""
"Parent30903","Gundelfingen, Rathaus Ost","48.0422223182437","7.86753509094235","1",""
"Parent30916","Freiburg, Bettina-von-Arnim-Str.","47.9950658106994","7.78888758780674","1",""
"Parent30918","Umkirch, Am Schloss","48.0308637554572","7.76106676345368","1",""
"Parent30923","Umkirch, Brugesstraße","48.0278359845116","7.77569133628119","1",""
"Parent30924","Umkirch, Gärtnerei","48.0359997457565","7.76167761784697","1",""
"Parent30938","Freiburg, Schaub","47.9830655066665","7.77930256372385","1",""
"Parent30939","Freiburg, Stryker","47.9859095183614","7.78215920632775","1",""
"Parent30943","Freiburg, Am Sportplatz","47.9688851993684","7.91062727512756","1",""
"Parent30950","Freiburg, Lehen Gew.gebiet Mitte","48.0239909396487","7.7947625697657","1",""
"Parent30951","Freiburg, Lehen Gew.gebiet Nord","48.0272712615182","7.79375645664734","1",""
"Parent30978","Freiburg, FWTM Neuer Messplatz","48.0126523955101","7.84039698620532","1",""
"Parent30979","Freiburg, Europa-Park Stadion","48.0144431740107","7.8366240620115","1",""
"Parent5121","Mengen Adler","47.9590264488971","7.71213552992088","1",""
"Parent5220","Munzingen, Romanstraße","47.9679288807304","7.69914589091071","1",""
"Parent5221","Beim Oberen Bäumle","47.9574082069844","7.71730982595813","1",""
"Parent53","Wasenweiler, Sonne","48.0514646943041","7.68104483793318","1",""
"Parent54","Ihringen Winzerstube","48.0424385331192","7.65104110743941","1",""
"Parent596","Wolfenweiler Weinstraße Straße","47.9568667764411","7.75970132422163","1",""
"Parent6517","Ihringen Bf","48.0404445170821","7.64869650454753","1",""
"Parent6521","Hugstetten Bahnhof","48.0480598013451","7.78463855651226","1",""
"Parent8","Freiburg, Industriepark Ost","48.0201335908338","7.84512212460045","1",""
